[
  {
    "name": "Small Segment",
    "size": 10,
    "uidentifier": "1f0225fcc9b443db9c9fcff527032de4",
    "restaruants": [
      {
        "name": "Rías Baixas",
        "street_address": "Avenida Maria Cristina",
        "latitude": "41.011567",
        "longitude": "0.945328",
        "city_name": "Mont-roig del Camp",
        "popularity_rate": "7.19",
        "satisfaction_rate": "7.13",
        "last_avg_price": "15.75",
        "total_reviews": "2",
        "uidentifier": "16723f73d7934ca9a7c668e4d4ee7516"
      },
      {
        "name": "Restaurante La Serreta Biar",
        "street_address": "Avenida d'Alacant",
        "latitude": "38.628849",
        "longitude": "-0.7618683",
        "city_name": "Biar",
        "popularity_rate": "6.59",
        "satisfaction_rate": "8.97",
        "last_avg_price": "17.25",
        "total_reviews": "11",
        "uidentifier": "bbc2c11e795e4c3ca263b0ad272f3200"
      },
      {
        "name": "Bar Curva",
        "street_address": "Calle Ganado",
        "latitude": "36.599133",
        "longitude": "-6.224225",
        "city_name": "El Puerto de Santa María",
        "popularity_rate": "4.54",
        "satisfaction_rate": "5.92",
        "last_avg_price": "15",
        "total_reviews": "1",
        "uidentifier": "f73d59e2c1264183a78e03cab227453b"
      },
      {
        "name": "Cafe Belga",
        "street_address": "Av Margues del Duero",
        "latitude": "36.4844",
        "longitude": "-4.989174",
        "city_name": "Benahavís",
        "popularity_rate": "5.91",
        "satisfaction_rate": "7.36",
        "last_avg_price": "23.1",
        "total_reviews": "0",
        "uidentifier": "9e67901bc6f24917bd68866879b97cdf"
      },
      {
        "name": "CanBla",
        "street_address": "Calle Joaquina Santander",
        "latitude": "39.962952",
        "longitude": "-4.82124",
        "city_name": "Talavera de la Reina",
        "popularity_rate": "6.07",
        "satisfaction_rate": null,
        "last_avg_price": "56.18",
        "total_reviews": "0",
        "uidentifier": "b2114df856fb4afeadf74039f91916e4"
      },
      {
        "name": "La LLuna Gourmet",
        "street_address": "Avenida de Madrid",
        "latitude": "38.68862",
        "longitude": "0.13377",
        "city_name": "Teulada",
        "popularity_rate": "5.53",
        "satisfaction_rate": null,
        "last_avg_price": "15",
        "total_reviews": "0",
        "uidentifier": "0492cfb5f367482dad9b11496c7040c8"
      },
      {
        "name": "Valencia CINNAMON RESTAURANT",
        "street_address": "Calle de les Comèdies",
        "latitude": "39.4733982",
        "longitude": "-0.3722643",
        "city_name": "Valencia",
        "popularity_rate": "7.61",
        "satisfaction_rate": "6.17",
        "last_avg_price": "27.5",
        "total_reviews": "2",
        "uidentifier": "a536a4a7ad164363a2a4bb33aa7f6c11"
      },
      {
        "name": "CascoViejo",
        "street_address": "Calle Gran Canaria",
        "latitude": "28.012541",
        "longitude": "-16.664631",
        "city_name": "San Miguel de Abona",
        "popularity_rate": "1.58",
        "satisfaction_rate": null,
        "last_avg_price": "15",
        "total_reviews": "0",
        "uidentifier": "cecd001550d545199214fae0719b7e8f"
      },
      {
        "name": "Hokkaido Restaurante Japonés",
        "street_address": "Calle de Jaume Balmes",
        "latitude": "39.5789582",
        "longitude": "2.66257",
        "city_name": "Palma",
        "popularity_rate": "6.45",
        "satisfaction_rate": "8.8",
        "last_avg_price": "15",
        "total_reviews": "2",
        "uidentifier": "ec302146523e47a096fbc115320f53f1"
      },
      {
        "name": "La Piadina Riminese",
        "street_address": "Rúa Juana de Vega",
        "latitude": "43.3668449",
        "longitude": "-8.4058462",
        "city_name": "A Coruña",
        "popularity_rate": "6.78",
        "satisfaction_rate": "8.21",
        "last_avg_price": "14.1",
        "total_reviews": "10",
        "uidentifier": "21cabce03f1b4e7a885b71883562cc70"
      }
    ]
  },
  {
    "name": "Medium Segment",
    "size": 200,
    "uidentifier": "9189b84d994347bd888cb9cc0a6f1e83",
    "restaruants": [
      {
        "name": "Bar Restaurante en Barbastro La Cerámica",
        "street_address": "Calle Cerámica Industrial VI",
        "latitude": "42.0421852",
        "longitude": "0.1383939",
        "city_name": "Barbastro",
        "popularity_rate": "6.04",
        "satisfaction_rate": "8.5",
        "last_avg_price": "30",
        "total_reviews": "3",
        "uidentifier": "0e38005b09304a2596412341ea922016"
      },
      {
        "name": "Restaurante Es Forat S L",
        "street_address": "Calle Marina",
        "latitude": "40.000842",
        "longitude": "3.8348545",
        "city_name": "Ciutadella de Menorca",
        "popularity_rate": "7.27",
        "satisfaction_rate": "6.43",
        "last_avg_price": "26.55",
        "total_reviews": "4",
        "uidentifier": "6eb725c505dd4a76b0167f9d3ce9ff70"
      },
      {
        "name": "Balneario Salinas",
        "street_address": "Avenida Juan Sitges",
        "latitude": "43.5772912",
        "longitude": "-5.9656576",
        "city_name": "Salinas",
        "popularity_rate": "7.11",
        "satisfaction_rate": "5.33",
        "last_avg_price": "21.8",
        "total_reviews": "9",
        "uidentifier": "2ef0536dd3894ecca367b59f5d34180f"
      },
      {
        "name": "Viento del Norte",
        "street_address": "Plaza Les Campes",
        "latitude": "43.39395",
        "longitude": "-5.66145",
        "city_name": "Siero",
        "popularity_rate": "4.88",
        "satisfaction_rate": "4.3",
        "last_avg_price": "15",
        "total_reviews": "1",
        "uidentifier": "ec6a1f628f6642168d64f4aa6cb59a83"
      },
      {
        "name": "Pizzería Mariotti Canet",
        "street_address": "Calle del Calvari",
        "latitude": "39.6817462",
        "longitude": "-0.2188272",
        "city_name": "Canet d'En Berenguer",
        "popularity_rate": "6.92",
        "satisfaction_rate": "8.59",
        "last_avg_price": "18",
        "total_reviews": "1",
        "uidentifier": "bfb1aca5f34a4fe0b7ffcde884d6c98c"
      },
      {
        "name": "Wok Chinatown",
        "street_address": "Avenida Ten Bel Calle Calle CHINATOWN, Las Chariras",
        "latitude": "28.047724",
        "longitude": "-16.612482",
        "city_name": "San Miguel de Abona",
        "popularity_rate": "5.27",
        "satisfaction_rate": "7",
        "last_avg_price": "30.86",
        "total_reviews": "2",
        "uidentifier": "0bd7426d522b47eb923c1e53fed44fb7"
      },
      {
        "name": "Moni's Pizzeria",
        "street_address": "Calle D Matilde Thino",
        "latitude": "40.3575342",
        "longitude": "0.4071267",
        "city_name": "Peñíscola",
        "popularity_rate": "6.19",
        "satisfaction_rate": null,
        "last_avg_price": "18",
        "total_reviews": "0",
        "uidentifier": "8bbf62ced6c449c990edb11dbd2e48e1"
      },
      {
        "name": "MAYCAR & CAFFELLATTE",
        "street_address": "Rúa do Doutor Teixeiro",
        "latitude": "42.8756778",
        "longitude": "-8.5446897",
        "city_name": "Santiago de Compostela",
        "popularity_rate": "5.38",
        "satisfaction_rate": "6.55",
        "last_avg_price": "8",
        "total_reviews": "2",
        "uidentifier": "1d8bbccac5204101bef83bbf9f41170d"
      },
      {
        "name": "Pintxo i Trago",
        "street_address": "Plaza Redona",
        "latitude": "39.4737274",
        "longitude": "-0.3767467",
        "city_name": "Valencia",
        "popularity_rate": "7.1",
        "satisfaction_rate": "7.9",
        "last_avg_price": "10.6",
        "total_reviews": "11",
        "uidentifier": "4489e29d919f43fa9c0b5b4e6305101a"
      },
      {
        "name": "Sotavento",
        "street_address": "Avenida Amilcar Barca",
        "latitude": "36.5139572",
        "longitude": "-6.2835616",
        "city_name": "Cádiz",
        "popularity_rate": "4.94",
        "satisfaction_rate": "8.25",
        "last_avg_price": "15",
        "total_reviews": "1",
        "uidentifier": "f4ea4472e30b4321a9b5a40f74454bac"
      },
      {
        "name": "Lusco Taberna",
        "street_address": "Calle Nubla",
        "latitude": "37.909847",
        "longitude": "-3.001642",
        "city_name": "Cazorla",
        "popularity_rate": "7.03",
        "satisfaction_rate": null,
        "last_avg_price": "20.8",
        "total_reviews": "-1",
        "uidentifier": "5b5a37b1609e4945891d5e85b7be137b"
      },
      {
        "name": "Cerveceria Er Cachi",
        "street_address": "Calle Nuestra Senora del Rosario",
        "latitude": "37.46539",
        "longitude": "-5.34205",
        "city_name": "Fuentes de Andalucía",
        "popularity_rate": "5.46",
        "satisfaction_rate": null,
        "last_avg_price": "13.1",
        "total_reviews": "0",
        "uidentifier": "623268c3efd54d2c9408dbd2eca0ebb2"
      },
      {
        "name": "Amparo Las Hayas",
        "street_address": null,
        "latitude": "28.128807",
        "longitude": "-17.291641",
        "city_name": "Santa Cruz de Tenerife",
        "popularity_rate": "6.02",
        "satisfaction_rate": null,
        "last_avg_price": "15",
        "total_reviews": "1",
        "uidentifier": "dc49a1a89b72494e8525cdb23b84fb40"
      },
      {
        "name": "Saro Pizzeria",
        "street_address": "Calle del Vall",
        "latitude": "41.5608445",
        "longitude": "2.0095888",
        "city_name": "Terrassa",
        "popularity_rate": "6.28",
        "satisfaction_rate": "8.61",
        "last_avg_price": "18",
        "total_reviews": "4",
        "uidentifier": "83aa144235034725b35644515a697137"
      },
      {
        "name": "Restaurante Asian",
        "street_address": "Carretera GrAlameda Los Abrigos la Tejita",
        "latitude": "28.033073",
        "longitude": "-16.562925",
        "city_name": "Granadilla de Abona",
        "popularity_rate": "5.67",
        "satisfaction_rate": null,
        "last_avg_price": "15",
        "total_reviews": "0",
        "uidentifier": "bc6b56b5436243c6be4ae5a5f53f986a"
      },
      {
        "name": "Restaurante Asador Calar del Mundo",
        "street_address": "Carretera Rio Mundo",
        "latitude": "38.493137",
        "longitude": "-2.4115",
        "city_name": "Riópar",
        "popularity_rate": "4.11",
        "satisfaction_rate": null,
        "last_avg_price": "26.5",
        "total_reviews": "0",
        "uidentifier": "240bc7920bae4d228f9be862d5f318bf"
      },
      {
        "name": "The Organic Co Bio Market & Cafe",
        "street_address": "Calle Wenceslao Argumosa",
        "latitude": "40.628624",
        "longitude": "-3.164331",
        "city_name": "Guadalajara",
        "popularity_rate": "6.23",
        "satisfaction_rate": "5.26",
        "last_avg_price": "33.3",
        "total_reviews": "0",
        "uidentifier": "4c3d2e3257f54f08ab9b690b9ca2d357"
      },
      {
        "name": "Raices",
        "street_address": "Avenida Alcalde Díaz Saavedra Navarro",
        "latitude": "28.1013604",
        "longitude": "-15.4123654",
        "city_name": "Las Palmas de Gran Canaria",
        "popularity_rate": "7.18",
        "satisfaction_rate": "7.69",
        "last_avg_price": "17.8",
        "total_reviews": "32",
        "uidentifier": "2ff2ab2f48e64368a5b8814996c86457"
      },
      {
        "name": "La Cabaña del Tío Juarvi",
        "street_address": "Parque de la Grajera",
        "latitude": "42.44686",
        "longitude": "-2.504785",
        "city_name": "Lardero",
        "popularity_rate": "5.47",
        "satisfaction_rate": null,
        "last_avg_price": "15.5",
        "total_reviews": "0",
        "uidentifier": "8c4e532f54854a7f9f09304e076acf6f"
      },
      {
        "name": "Can Joan Restaurant",
        "street_address": "Avenidade Gener 21",
        "latitude": "41.49215",
        "longitude": "0.4585",
        "city_name": "Aitona",
        "popularity_rate": "5.2",
        "satisfaction_rate": "4.05",
        "last_avg_price": "52.5",
        "total_reviews": "1",
        "uidentifier": "533828e21a7d42ba87ebedbcd79001d7"
      },
      {
        "name": "Antull Gastrobar Vermoutheria",
        "street_address": "Calle Major",
        "latitude": "41.6867944",
        "longitude": "2.4881194",
        "city_name": "Sant Celoni",
        "popularity_rate": "6.8",
        "satisfaction_rate": "6.25",
        "last_avg_price": "27.5",
        "total_reviews": "1",
        "uidentifier": "6aa7c630507f45c2b9f5615a1dcbb713"
      },
      {
        "name": "Bar Prudent",
        "street_address": "Esquina Calle pi I Maragall con Calle de les Torretes",
        "latitude": "41.92114",
        "longitude": "3.16477",
        "city_name": "Palafrugell",
        "popularity_rate": "4.62",
        "satisfaction_rate": null,
        "last_avg_price": "12",
        "total_reviews": "0",
        "uidentifier": "d37b582220644de7bced09bee8216346"
      },
      {
        "name": "Taberna El Albero",
        "street_address": "Calle San Félix",
        "latitude": "36.5298214",
        "longitude": "-6.3036368",
        "city_name": "Cádiz",
        "popularity_rate": "4.12",
        "satisfaction_rate": null,
        "last_avg_price": "23.1",
        "total_reviews": "0",
        "uidentifier": "fe4d4f8521634ef291cba4bd5f5bf555"
      },
      {
        "name": "Miro a Taula",
        "street_address": "Plaza Major",
        "latitude": "41.70162",
        "longitude": "0.4118",
        "city_name": "Lleida",
        "popularity_rate": "5.94",
        "satisfaction_rate": null,
        "last_avg_price": "21.1",
        "total_reviews": "0",
        "uidentifier": "e40954bea92e482da7c4ab092e1974d7"
      },
      {
        "name": "Familia Los Cocineros",
        "street_address": "Carretera General",
        "latitude": "28.417532",
        "longitude": "-16.503342",
        "city_name": "Santa Úrsula",
        "popularity_rate": "5.05",
        "satisfaction_rate": null,
        "last_avg_price": "15",
        "total_reviews": "0",
        "uidentifier": "98940575db054178b38011b24d95cd52"
      },
      {
        "name": "Restaurante La Candela",
        "street_address": "Calle Arrayanes",
        "latitude": "38.8638482",
        "longitude": "-6.9691702",
        "city_name": "Badajoz",
        "popularity_rate": "5.93",
        "satisfaction_rate": "7.9",
        "last_avg_price": "22.5",
        "total_reviews": "6",
        "uidentifier": "589793bcecde4dd782a9f3822a9e88ec"
      },
      {
        "name": "Sidrería Calonge - Calonge Sagardotegia",
        "street_address": "Padre Orkolaga Ibilbidea",
        "latitude": "43.3086372",
        "longitude": "-2.036848",
        "city_name": "Donostia-San Sebastián",
        "popularity_rate": "6.08",
        "satisfaction_rate": "9.07",
        "last_avg_price": "250",
        "total_reviews": "4",
        "uidentifier": "c9ed4205f27447f392eecd20c9f0f0d2"
      },
      {
        "name": "Restaurant Maristany",
        "street_address": "Avenida Maristany",
        "latitude": "42.315697",
        "longitude": "2.362321",
        "city_name": "Camprodon",
        "popularity_rate": "4.51",
        "satisfaction_rate": null,
        "last_avg_price": "120",
        "total_reviews": "0",
        "uidentifier": "01bb545c91214bb1a898606f43b6997d"
      },
      {
        "name": "Txalupa",
        "street_address": "Calle Nuestra Senora de Gracia",
        "latitude": "36.509293",
        "longitude": "-4.890997",
        "city_name": "Marbella",
        "popularity_rate": "5.33",
        "satisfaction_rate": null,
        "last_avg_price": "21.35",
        "total_reviews": "0",
        "uidentifier": "391d5c41b4094f90ad05d6ddd5accd74"
      },
      {
        "name": "Asador de Perleta",
        "street_address": "Poligo II",
        "latitude": "38.2509858",
        "longitude": "-0.6319523",
        "city_name": "Elche",
        "popularity_rate": "6.33",
        "satisfaction_rate": "9.13",
        "last_avg_price": "21.8",
        "total_reviews": "23",
        "uidentifier": "ce5da7d011ab460b83cf163a031fba2f"
      },
      {
        "name": "Legends Snooker & Pool Bar",
        "street_address": "null",
        "latitude": "28.466293",
        "longitude": "-16.258417",
        "city_name": "Santa Cruz de Tenerife",
        "popularity_rate": "4.09",
        "satisfaction_rate": null,
        "last_avg_price": "15",
        "total_reviews": "0",
        "uidentifier": "edd43296b16345878caca16b1e5fd8d4"
      },
      {
        "name": "Bar a Bar!",
        "street_address": "Av de las Gaviotas Hotel Jardin Caleta Local 7 32",
        "latitude": "28.099346",
        "longitude": "-16.754168",
        "city_name": "Adeje",
        "popularity_rate": "5.32",
        "satisfaction_rate": null,
        "last_avg_price": "14.6",
        "total_reviews": "0",
        "uidentifier": "95949706daa542119e72835a5f855e2e"
      },
      {
        "name": "DeTabernas",
        "street_address": "Calle San Pablo",
        "latitude": "36.681",
        "longitude": "-6.13678",
        "city_name": "Jerez de la Frontera",
        "popularity_rate": "5.2",
        "satisfaction_rate": null,
        "last_avg_price": "15",
        "total_reviews": "0",
        "uidentifier": "d4efc52c088548479cbfa97cdd66dd73"
      },
      {
        "name": "Racó de L'Iberic S.L.U.",
        "street_address": "Plaza Major",
        "latitude": "41.9308346",
        "longitude": "2.2543068",
        "city_name": "Vic",
        "popularity_rate": "6.15",
        "satisfaction_rate": "5.75",
        "last_avg_price": "23.5",
        "total_reviews": "1",
        "uidentifier": "41a5638b54394cf3b796ca46f0cf01e7"
      },
      {
        "name": "Pizzeria Anvic",
        "street_address": "Calle Corredera",
        "latitude": "38.8666186",
        "longitude": "-1.0948473",
        "city_name": "Almansa",
        "popularity_rate": "6.38",
        "satisfaction_rate": "7.88",
        "last_avg_price": "25.1",
        "total_reviews": "1",
        "uidentifier": "39da362ce7bf4466b5650e89cfdee421"
      },
      {
        "name": "Taberna Raspao",
        "street_address": "Plaza la Merced",
        "latitude": "37.2391302",
        "longitude": "-5.1008679",
        "city_name": "Osuna",
        "popularity_rate": "6.83",
        "satisfaction_rate": "5.43",
        "last_avg_price": "13.8",
        "total_reviews": "0",
        "uidentifier": "03b50d57b2f64b21bd47443332b442a3"
      },
      {
        "name": "Fresco",
        "street_address": "Beachfont",
        "latitude": "37.815659",
        "longitude": "-0.78604",
        "city_name": "San Pedro",
        "popularity_rate": "4.02",
        "satisfaction_rate": null,
        "last_avg_price": "14.8",
        "total_reviews": "0",
        "uidentifier": "cd3fe1a09a7f4ed7a99e8d11eaf6475e"
      },
      {
        "name": "L'ESCULAPI Restaurant-Pizzeria",
        "street_address": "Plaza Major",
        "latitude": "42.1396897",
        "longitude": "3.1180743",
        "city_name": "L'Escala",
        "popularity_rate": "7.57",
        "satisfaction_rate": "7.84",
        "last_avg_price": "18",
        "total_reviews": "4",
        "uidentifier": "48952c5e648e4f74a732a306a2f71b86"
      },
      {
        "name": "Restaurante Chino Xing Yue",
        "street_address": "Avenida las Retamas",
        "latitude": "40.3374892",
        "longitude": "-3.8287011",
        "city_name": "Alcorcón",
        "popularity_rate": "4.63",
        "satisfaction_rate": "6",
        "last_avg_price": "16.05",
        "total_reviews": "0",
        "uidentifier": "35feab60311940af81e53cf72bd7d212"
      },
      {
        "name": "Pizzería Imperial",
        "street_address": "Calle Frenería",
        "latitude": "37.984019",
        "longitude": "-1.1302211",
        "city_name": "Murcia",
        "popularity_rate": "7.24",
        "satisfaction_rate": "7.12",
        "last_avg_price": "18.53",
        "total_reviews": "11",
        "uidentifier": "bde5849a3bfe495795223bab7c5bbc2c"
      },
      {
        "name": "El Balcón del Tubo",
        "street_address": "Calle Estébanes",
        "latitude": "41.6536711",
        "longitude": "-0.8801789",
        "city_name": "Zaragoza",
        "popularity_rate": "7.46",
        "satisfaction_rate": "7.96",
        "last_avg_price": "16.1",
        "total_reviews": "12",
        "uidentifier": "55247211eb204c168b3ab78b24d5295b"
      },
      {
        "name": "RESTAURANT INFINIT",
        "street_address": "Calle de la Llibertat 109",
        "latitude": "41.2196739",
        "longitude": "1.7287141",
        "city_name": "Vilanova i la Geltrú",
        "popularity_rate": "7.23",
        "satisfaction_rate": "5.3",
        "last_avg_price": "120",
        "total_reviews": "0",
        "uidentifier": "44436905af924cbdbf41e184d37899f4"
      },
      {
        "name": "Granja El Cafetó",
        "street_address": "Calle Melindro",
        "latitude": "41.543201",
        "longitude": "2.10331",
        "city_name": "Sabadell",
        "popularity_rate": "1.65",
        "satisfaction_rate": null,
        "last_avg_price": "17.5",
        "total_reviews": "0",
        "uidentifier": "a3feb66bde024baba19b673b6e907755"
      },
      {
        "name": "Chicho's Bar",
        "street_address": "Calle Castillo del Buen Amor",
        "latitude": "37.63507",
        "longitude": "-1.00462",
        "city_name": "Cartagena",
        "popularity_rate": "5.21",
        "satisfaction_rate": null,
        "last_avg_price": "15",
        "total_reviews": "0",
        "uidentifier": "6af1b472a2ca4266990c0acb23a42dd9"
      },
      {
        "name": "Aura",
        "street_address": "Paseo San Cristobal",
        "latitude": "36.73186",
        "longitude": "-3.698551",
        "city_name": "Salobreña",
        "popularity_rate": "5.5",
        "satisfaction_rate": null,
        "last_avg_price": "32",
        "total_reviews": "0",
        "uidentifier": "76a236c5105d48928292b76930d3c274"
      },
      {
        "name": "Overseas Restaurant",
        "street_address": "Av de España",
        "latitude": "36.4935424",
        "longitude": "-4.7193184",
        "city_name": "Mijas",
        "popularity_rate": "6.17",
        "satisfaction_rate": null,
        "last_avg_price": "19.1",
        "total_reviews": "0",
        "uidentifier": "7baf3ccea34c4be58598df24930476f4"
      },
      {
        "name": "Cafe & Copas Manhattan",
        "street_address": "Ronda Castillo",
        "latitude": "42.48204",
        "longitude": "-1.64988",
        "city_name": "Olite",
        "popularity_rate": "1.16",
        "satisfaction_rate": null,
        "last_avg_price": "7.5",
        "total_reviews": "0",
        "uidentifier": "7703e335279d41b3a7b9955eb8b8523a"
      },
      {
        "name": "Plateruena Kafe Antzokia",
        "street_address": "Landako Etorbidea",
        "latitude": "43.1704178",
        "longitude": "-2.6311903",
        "city_name": "Durango",
        "popularity_rate": "6.97",
        "satisfaction_rate": "6.18",
        "last_avg_price": "24.75",
        "total_reviews": "4",
        "uidentifier": "1a0446eafc8d452eafd32d058eb08502"
      },
      {
        "name": "Café Metropolitan Bar - Bar Navalmoral de la Mata (Wifi)",
        "street_address": "Calle Pérez Lozano",
        "latitude": "39.8903336",
        "longitude": "-5.5382125",
        "city_name": "Navalmoral de la Mata",
        "popularity_rate": "5.78",
        "satisfaction_rate": "7.75",
        "last_avg_price": "7",
        "total_reviews": "2",
        "uidentifier": "9f853140be2a40efa5ab92abe06fd8cb"
      },
      {
        "name": "Restaurante Bonifacio",
        "street_address": "Calle los Perales",
        "latitude": "28.50278",
        "longitude": "-16.40516",
        "city_name": "Tacoronte",
        "popularity_rate": "5.87",
        "satisfaction_rate": null,
        "last_avg_price": "15",
        "total_reviews": "0",
        "uidentifier": "f1b1556204db4151ab1ac71554483982"
      },
      {
        "name": "Restaurante Mauro",
        "street_address": "Puerto deportivo de San Adrián de Cobres",
        "latitude": "42.3012983",
        "longitude": "-8.6546728",
        "city_name": "Vilaboa",
        "popularity_rate": "7.44",
        "satisfaction_rate": "8.54",
        "last_avg_price": "55",
        "total_reviews": "5",
        "uidentifier": "648a0ed6b1e3429da416ec47fb1aa7fc"
      },
      {
        "name": "Pasteleria Cafeteria Tandil",
        "street_address": "Plaza Llibertat",
        "latitude": "39.71925",
        "longitude": "2.90809",
        "city_name": "Inca",
        "popularity_rate": "1.31",
        "satisfaction_rate": null,
        "last_avg_price": "10",
        "total_reviews": "0",
        "uidentifier": "0b5bcf27e9b34939a2916d5472019b77"
      },
      {
        "name": "Restaurante Casa Manolo",
        "street_address": "Calle Armas",
        "latitude": "41.8822518",
        "longitude": "-5.0438317",
        "city_name": "Medina de Rioseco",
        "popularity_rate": "8.37",
        "satisfaction_rate": "9.02",
        "last_avg_price": "5",
        "total_reviews": "7",
        "uidentifier": "8b106c416d744bd29b89c4f381dd9154"
      },
      {
        "name": "L'Engruna",
        "street_address": "Calle de Santa Elisabet",
        "latitude": "41.6090893",
        "longitude": "2.2878002",
        "city_name": "Granollers",
        "popularity_rate": "6.61",
        "satisfaction_rate": "8.57",
        "last_avg_price": "10",
        "total_reviews": "3",
        "uidentifier": "3e76dcf77ced4455a076c691dca29e42"
      },
      {
        "name": "Pizzeria Rincon Argentino",
        "street_address": "Avenida Viveiro",
        "latitude": "43.489783",
        "longitude": "-8.223365",
        "city_name": "Ferrol",
        "popularity_rate": "6.43",
        "satisfaction_rate": "7",
        "last_avg_price": "25.1",
        "total_reviews": "0",
        "uidentifier": "f1e09187606f4141b77a99b4955965f3"
      },
      {
        "name": "Cafe La Ola Corralejo",
        "street_address": "Paseo Maritimoo Bristol",
        "latitude": "28.742811",
        "longitude": "-13.864624",
        "city_name": "La Oliva",
        "popularity_rate": "5.25",
        "satisfaction_rate": "6",
        "last_avg_price": "5",
        "total_reviews": "1",
        "uidentifier": "665896ee79994f50a5712e0bbbab9735"
      },
      {
        "name": "Nice Spice",
        "street_address": "Calle de Pujades",
        "latitude": "41.403205",
        "longitude": "2.202471",
        "city_name": "Barcelona",
        "popularity_rate": "6.77",
        "satisfaction_rate": "8.66",
        "last_avg_price": "19",
        "total_reviews": "8",
        "uidentifier": "1f063f6a638543149dcb39b911cb01af"
      },
      {
        "name": "Sobrellano Coffee Drinks & Food",
        "street_address": "Calle del Marqués de",
        "latitude": "43.3850681",
        "longitude": "-4.2945262",
        "city_name": "Comillas",
        "popularity_rate": "3.31",
        "satisfaction_rate": null,
        "last_avg_price": "5",
        "total_reviews": "0",
        "uidentifier": "1a7eea75243048bd965eb8d4cbaf2f12"
      },
      {
        "name": "El Sitio Bar",
        "street_address": "Calle Bailén",
        "latitude": "38.3455711",
        "longitude": "-0.4845988",
        "city_name": "Alicante",
        "popularity_rate": "6",
        "satisfaction_rate": null,
        "last_avg_price": "17.5",
        "total_reviews": "2",
        "uidentifier": "7b2a7ca47382485781c073d5023761f6"
      },
      {
        "name": "Pescadería Freiduría La Marina",
        "street_address": "Avenida Reyes Católicos",
        "latitude": "38.473074",
        "longitude": "-1.32643",
        "city_name": "Jumilla",
        "popularity_rate": "6.41",
        "satisfaction_rate": null,
        "last_avg_price": "23.1",
        "total_reviews": "0",
        "uidentifier": "bf7bdbff27fd4e6fa92080c6750c6684"
      },
      {
        "name": "Corazón de Agave",
        "street_address": "Calle de Sant Pere",
        "latitude": "41.2359728",
        "longitude": "1.8085437",
        "city_name": "Sitges",
        "popularity_rate": "6.04",
        "satisfaction_rate": "8.9",
        "last_avg_price": "25.25",
        "total_reviews": "9",
        "uidentifier": "67ed826799e04183905a65979849a384"
      },
      {
        "name": "Dona Juana",
        "street_address": "Calle San Pedro",
        "latitude": "40.82527",
        "longitude": "-3.04953",
        "city_name": "Hita",
        "popularity_rate": "5.55",
        "satisfaction_rate": null,
        "last_avg_price": "18.55",
        "total_reviews": "0",
        "uidentifier": "17bd1f18db2041c98c20899a2b76cdc7"
      },
      {
        "name": "El Almacén",
        "street_address": "Calle Don Tomás Maestre",
        "latitude": "37.6209411",
        "longitude": "-0.8784697",
        "city_name": "La Unión",
        "popularity_rate": "6.12",
        "satisfaction_rate": "8",
        "last_avg_price": "14.2",
        "total_reviews": "5",
        "uidentifier": "c51981a97fa943e79cf36a575f34a56f"
      },
      {
        "name": "El Miajón de los Castúos",
        "street_address": "Calle de la Infanta Mercedes",
        "latitude": "40.4594406",
        "longitude": "-3.6967268",
        "city_name": "Madrid",
        "popularity_rate": "5.65",
        "satisfaction_rate": "9.5",
        "last_avg_price": "20.8",
        "total_reviews": "3",
        "uidentifier": "be760142fbee4c3bab0db2de9cd9737d"
      },
      {
        "name": "Vitotapes",
        "street_address": "Avenida de Gaspar Aguilar",
        "latitude": "39.4571078",
        "longitude": "-0.3900709",
        "city_name": "Valencia",
        "popularity_rate": "5.76",
        "satisfaction_rate": null,
        "last_avg_price": "10",
        "total_reviews": "0",
        "uidentifier": "c3573337c1344f02bb866e4ee1b3ee43"
      },
      {
        "name": "Echale Huevos",
        "street_address": "Plaza la Concepcion",
        "latitude": "28.49029",
        "longitude": "-16.31937",
        "city_name": "San Cristóbal de La Laguna",
        "popularity_rate": "4.36",
        "satisfaction_rate": "5.45",
        "last_avg_price": "15",
        "total_reviews": "1",
        "uidentifier": "734e2519f0af44deadc7929d0143aebc"
      },
      {
        "name": "ASADOR ARAMENDI",
        "street_address": "Arteaga Auzoa, -Bizkaia",
        "latitude": "43.2863",
        "longitude": "-2.87084",
        "city_name": "Zamudio",
        "popularity_rate": "5.6",
        "satisfaction_rate": null,
        "last_avg_price": "15.6",
        "total_reviews": "0",
        "uidentifier": "8c0d7321545e4b36a782e5a22d33076c"
      },
      {
        "name": "El Tostón",
        "street_address": "Calla de Muelle de Pescadores",
        "latitude": "28.6835288",
        "longitude": "-14.0109338",
        "city_name": "La Oliva",
        "popularity_rate": "6.38",
        "satisfaction_rate": null,
        "last_avg_price": "5",
        "total_reviews": "0",
        "uidentifier": "809cb6b528ce4c1f94ba9aaf72ee7e71"
      },
      {
        "name": "sabor a india",
        "street_address": "Avenida de Joan Miró",
        "latitude": "39.5535833",
        "longitude": "2.6063056",
        "city_name": "Palma",
        "popularity_rate": "6.53",
        "satisfaction_rate": "9.7",
        "last_avg_price": "7.45",
        "total_reviews": "0",
        "uidentifier": "48baab7d325646138ac774f71f504dab"
      },
      {
        "name": "Rocco's Drinks Wine & Music",
        "street_address": "Calle Sant Feliu",
        "latitude": "39.57076",
        "longitude": "2.6447",
        "city_name": "Palma",
        "popularity_rate": "5.36",
        "satisfaction_rate": null,
        "last_avg_price": "11",
        "total_reviews": "0",
        "uidentifier": "ff7d33be4cec4b52854384f5d224550f"
      },
      {
        "name": "Thai Fusion Food",
        "street_address": "Avenida Argentina",
        "latitude": "39.57346",
        "longitude": "2.64069",
        "city_name": "Palma",
        "popularity_rate": "4.35",
        "satisfaction_rate": null,
        "last_avg_price": "15",
        "total_reviews": "0",
        "uidentifier": "622a1d1dad664d9e9b2e1daff0471635"
      },
      {
        "name": "El Sur",
        "street_address": "Calle de la Torrecilla del Leal",
        "latitude": "40.4110465",
        "longitude": "-3.6995308",
        "city_name": "Madrid",
        "popularity_rate": "8.65",
        "satisfaction_rate": "9.08",
        "last_avg_price": "26.65",
        "total_reviews": "59",
        "uidentifier": "b47193e887474731853b108aae1ece5a"
      },
      {
        "name": "Restaurante la Espumosa",
        "street_address": "Avenida Cardenal Ilundain",
        "latitude": "37.3644314",
        "longitude": "-5.9824778",
        "city_name": "Sevilla",
        "popularity_rate": "5.85",
        "satisfaction_rate": "6.16",
        "last_avg_price": "75",
        "total_reviews": "2",
        "uidentifier": "f4b55c685e134f61ab19d08ba1921ba7"
      },
      {
        "name": "Retama",
        "street_address": "Caminono de Altamar",
        "latitude": "38.666225",
        "longitude": "-3.309667",
        "city_name": "Torrenueva",
        "popularity_rate": "7.36",
        "satisfaction_rate": "7.61",
        "last_avg_price": "65",
        "total_reviews": "2",
        "uidentifier": "52057a5c15bb48fcbef758853f67a186"
      },
      {
        "name": "Olympia Pool & Garden",
        "street_address": "Avenida de Austria",
        "latitude": "37.888428",
        "longitude": "-0.7639",
        "city_name": "Pilar de la Horadada",
        "popularity_rate": "1.62",
        "satisfaction_rate": null,
        "last_avg_price": "17.25",
        "total_reviews": "0",
        "uidentifier": "d22227e0abb145dbaec2f76f9917bbe8"
      },
      {
        "name": "Saona General Gallegos",
        "street_address": "Calle del GrAlameda Gallegos",
        "latitude": "40.4609134",
        "longitude": "-3.6859409",
        "city_name": "Madrid",
        "popularity_rate": "6.23",
        "satisfaction_rate": "7.87",
        "last_avg_price": "15",
        "total_reviews": "10",
        "uidentifier": "386f4ee81fcb4f32ab2de74f980a8965"
      },
      {
        "name": "The Irish Abbey",
        "street_address": "Calle del Rio",
        "latitude": "40.451729",
        "longitude": "-3.473479",
        "city_name": "Torrejón de Ardoz",
        "popularity_rate": "6.82",
        "satisfaction_rate": "8.59",
        "last_avg_price": "14.2",
        "total_reviews": "19",
        "uidentifier": "6259704e9e054226919e29887ed66378"
      },
      {
        "name": "Taperia Tostapa",
        "street_address": "Calle de Julio Prieto Nespereira",
        "latitude": "42.33234",
        "longitude": "-7.86275",
        "city_name": "Ourense",
        "popularity_rate": "1.62",
        "satisfaction_rate": null,
        "last_avg_price": "18.5",
        "total_reviews": "0",
        "uidentifier": "2d3bba16870544ebb76a295ee4332874"
      },
      {
        "name": "Restaurante Chino Palacio Oriental",
        "street_address": "EspañaRestaurante Chino Palacio Oriental邮政编码:",
        "latitude": "41.1171324",
        "longitude": "1.2173973",
        "city_name": "Tarragona",
        "popularity_rate": "6.08",
        "satisfaction_rate": "6.84",
        "last_avg_price": "15",
        "total_reviews": "3",
        "uidentifier": "0481a1b4815b4016b44f55daa27fbe36"
      },
      {
        "name": "El Bar del Cat",
        "street_address": "Travesía de Sant Antoni",
        "latitude": "41.40234",
        "longitude": "2.15447",
        "city_name": "Barcelona",
        "popularity_rate": "5.12",
        "satisfaction_rate": null,
        "last_avg_price": "10",
        "total_reviews": "0",
        "uidentifier": "29a72c807f6342c18e0ca0569b00f6af"
      },
      {
        "name": "restaurante destiladera Lopez",
        "street_address": "Autovía Santa Cruz-Icod, km. 52",
        "latitude": "28.45753",
        "longitude": "-16.26875",
        "city_name": "Santa Cruz de Tenerife",
        "popularity_rate": "4.95",
        "satisfaction_rate": null,
        "last_avg_price": "15",
        "total_reviews": "0",
        "uidentifier": "7ade164f206544a6ad3dd1121729feb4"
      },
      {
        "name": "Restaurante Posada San Felipe",
        "street_address": "Calle Rio",
        "latitude": "40.34949",
        "longitude": "-1.84969",
        "city_name": "Tragacete",
        "popularity_rate": "1.66",
        "satisfaction_rate": null,
        "last_avg_price": "10.5",
        "total_reviews": "0",
        "uidentifier": "e33af48fc06748daa086c462631fbaad"
      },
      {
        "name": "Pensión Restaurante Cantábrico",
        "street_address": "Rúa Rosalía de Castro Poeta",
        "latitude": "43.7360832",
        "longitude": "-7.8752139",
        "city_name": "Cariño",
        "popularity_rate": "5.79",
        "satisfaction_rate": "7.75",
        "last_avg_price": "10.3",
        "total_reviews": "1",
        "uidentifier": "ecfb7aec397f4dd381d69290798fd6e7"
      },
      {
        "name": "Casa Jordi",
        "street_address": "Rambla President Francesc Macià",
        "latitude": "41.122269",
        "longitude": "1.2381238",
        "city_name": "Tarragona",
        "popularity_rate": "5.78",
        "satisfaction_rate": "5.85",
        "last_avg_price": "20.8",
        "total_reviews": "1",
        "uidentifier": "ec72250c5f0a4150a26c5ce2c4398475"
      },
      {
        "name": "Cafe Restaurante Barbecue",
        "street_address": "Calle de la Isla de Gran Canaria",
        "latitude": "41.66917",
        "longitude": "-0.87707",
        "city_name": "Zaragoza",
        "popularity_rate": "2.53",
        "satisfaction_rate": "4.48",
        "last_avg_price": "15",
        "total_reviews": "1",
        "uidentifier": "886adbd1142947429365e82a22595f65"
      },
      {
        "name": "Zaino",
        "street_address": "Calle Franklin",
        "latitude": "40.5405617",
        "longitude": "-3.463048",
        "city_name": "Daganzo de Arriba",
        "popularity_rate": "6.91",
        "satisfaction_rate": "7.3",
        "last_avg_price": "20",
        "total_reviews": "14",
        "uidentifier": "a091542810144e1893a6cd4e95f67e45"
      },
      {
        "name": "S'hostal Des Pla",
        "street_address": "Carretera Manacor",
        "latitude": "39.57029",
        "longitude": "2.801183",
        "city_name": "Palma",
        "popularity_rate": "5.98",
        "satisfaction_rate": "5.62",
        "last_avg_price": "35.2",
        "total_reviews": "1",
        "uidentifier": "df6bc9f2e0034a82b82be9c54869246d"
      },
      {
        "name": "Bar Sevilla",
        "street_address": "Calle Marques de Paradas",
        "latitude": "37.390949",
        "longitude": "-6.00132",
        "city_name": "Sevilla",
        "popularity_rate": "4.7",
        "satisfaction_rate": null,
        "last_avg_price": "15.2",
        "total_reviews": "0",
        "uidentifier": "80701d4afd84471f958dc802217916bc"
      },
      {
        "name": "Aki Mismo",
        "street_address": "Avenida del Mar",
        "latitude": "36.8410949",
        "longitude": "-3.5792197",
        "city_name": "Los Guajares",
        "popularity_rate": "4.74",
        "satisfaction_rate": null,
        "last_avg_price": "18.1",
        "total_reviews": "0",
        "uidentifier": "1383f7cd1b294e0bbca42ba8dd4620f7"
      },
      {
        "name": "El Rincón Leonés",
        "street_address": "Calle San Vicente",
        "latitude": "38.3506231",
        "longitude": "-0.4849153",
        "city_name": "Crevillent",
        "popularity_rate": "3.17",
        "satisfaction_rate": null,
        "last_avg_price": "15",
        "total_reviews": "0",
        "uidentifier": "5f58720e146f43d8b9c249900f1fe18b"
      },
      {
        "name": "Ebisu Tradicional.Bar-Restaurante",
        "street_address": "Calle San Agustín",
        "latitude": "42.4659922",
        "longitude": "-2.448344",
        "city_name": "Logroño",
        "popularity_rate": "6.29",
        "satisfaction_rate": "7.89",
        "last_avg_price": "15",
        "total_reviews": "3",
        "uidentifier": "4f1e4456997241d9b1761c72cd4ba3c4"
      },
      {
        "name": "Carbayu",
        "street_address": "Plaza de la Font",
        "latitude": "41.192761",
        "longitude": "1.208794",
        "city_name": "El Morell",
        "popularity_rate": "8.19",
        "satisfaction_rate": "6.75",
        "last_avg_price": "15",
        "total_reviews": "3",
        "uidentifier": "a4d6ec383320479bbfe5ccf941e52219"
      },
      {
        "name": "El Maquinista Bar Restaurante",
        "street_address": "Avenida de La Paz",
        "latitude": "41.90654",
        "longitude": "-1.72117",
        "city_name": "Tarazona",
        "popularity_rate": "5.33",
        "satisfaction_rate": null,
        "last_avg_price": "15",
        "total_reviews": "0",
        "uidentifier": "485701774cb34cc3ae577261a5a2c77a"
      },
      {
        "name": "Al Fresco By Edujota",
        "street_address": "Callao de Lima",
        "latitude": "28.468506",
        "longitude": "-16.254751",
        "city_name": "Santa Cruz de Tenerife",
        "popularity_rate": "5.81",
        "satisfaction_rate": null,
        "last_avg_price": "51.5",
        "total_reviews": "0",
        "uidentifier": "05aee2e16ef14f4597ff5ccdd87af2ee"
      },
      {
        "name": "Botánico",
        "street_address": "Calle Rualasal",
        "latitude": "43.4627917",
        "longitude": "-3.8080972",
        "city_name": "Santander",
        "popularity_rate": "5.18",
        "satisfaction_rate": "8.92",
        "last_avg_price": "11.3",
        "total_reviews": "2",
        "uidentifier": "69d3d9279a9a43da8537e073a9428773"
      },
      {
        "name": "Maria Castana",
        "street_address": "Avenida de Jose Fernandez Lopez",
        "latitude": "38.91834",
        "longitude": "-6.351168",
        "city_name": "Mérida",
        "popularity_rate": "4.78",
        "satisfaction_rate": "5.96",
        "last_avg_price": "22.5",
        "total_reviews": "5",
        "uidentifier": "6e014a6b74a043108e79294d471b2057"
      },
      {
        "name": "Restaurant Hispania",
        "street_address": "Carretera Real",
        "latitude": "41.571134",
        "longitude": "2.532337",
        "city_name": "Caldes d'Estrac",
        "popularity_rate": "7.07",
        "satisfaction_rate": "8.38",
        "last_avg_price": "45",
        "total_reviews": "13",
        "uidentifier": "578423de0ee943b0b776d52881432678"
      },
      {
        "name": "Taberna Vikinga",
        "street_address": "Rúa-do Concello",
        "latitude": "42.6659565",
        "longitude": "-8.7229672",
        "city_name": "Catoira",
        "popularity_rate": "8.13",
        "satisfaction_rate": "9.35",
        "last_avg_price": "45.24",
        "total_reviews": "7",
        "uidentifier": "ab23498d7a4041868163fb09ed565df0"
      },
      {
        "name": "Tijuana Tex Mex - Restaurante Mexicano",
        "street_address": "Calle Asunción",
        "latitude": "37.3729078",
        "longitude": "-5.9973578",
        "city_name": "Sevilla",
        "popularity_rate": "7.08",
        "satisfaction_rate": "8.76",
        "last_avg_price": "40",
        "total_reviews": "17",
        "uidentifier": "5deaf8ed882f47219efc35206e72b74c"
      },
      {
        "name": "Bar antigua churreria Marisa",
        "street_address": "Calle fray luis de leon",
        "latitude": "40.07483",
        "longitude": "-2.135889",
        "city_name": "Cuenca",
        "popularity_rate": "5.56",
        "satisfaction_rate": null,
        "last_avg_price": "9.07",
        "total_reviews": "0",
        "uidentifier": "826ab207f8fd4922a77dca217224cb6f"
      },
      {
        "name": "\" EL ALMACÉN \" - BAR - REINOSA",
        "street_address": "Avenida Puente de Carlos III",
        "latitude": "42.9981428",
        "longitude": "-4.1386857",
        "city_name": "Reinosa",
        "popularity_rate": "6.57",
        "satisfaction_rate": "8.57",
        "last_avg_price": "14.2",
        "total_reviews": "2",
        "uidentifier": "41312dc7f0a24c79ac89552cc2e02f76"
      },
      {
        "name": "Restaurante Robin Hood",
        "street_address": "Avenida Castilla la Mancha",
        "latitude": "39.86657",
        "longitude": "-4.01795",
        "city_name": "Toledo",
        "popularity_rate": "2.6",
        "satisfaction_rate": null,
        "last_avg_price": "21.55",
        "total_reviews": "0",
        "uidentifier": "ec8739e94749483ea22b7bd1bd91ed5c"
      },
      {
        "name": "Balneario Salinas",
        "street_address": "Avenida Juan Sitges",
        "latitude": "43.5772912",
        "longitude": "-5.9656576",
        "city_name": "Salinas",
        "popularity_rate": "7.11",
        "satisfaction_rate": "5.33",
        "last_avg_price": "21.8",
        "total_reviews": "9",
        "uidentifier": "2ef0536dd3894ecca367b59f5d34180f"
      },
      {
        "name": "Bar Sanz Bocadillos",
        "street_address": "Calle del General Álvarez de Castro",
        "latitude": "41.3871237",
        "longitude": "2.1774112",
        "city_name": "Barcelona",
        "popularity_rate": "6.88",
        "satisfaction_rate": "8.42",
        "last_avg_price": "12",
        "total_reviews": "146",
        "uidentifier": "bb1c50d53d21424ba177394210afab1a"
      },
      {
        "name": "Carl's Jr",
        "street_address": "Calle de Jose Perez Llacer",
        "latitude": "39.41539",
        "longitude": "-0.38195",
        "city_name": "Alfafar",
        "popularity_rate": "5.86",
        "satisfaction_rate": "6.45",
        "last_avg_price": "22.7",
        "total_reviews": "2",
        "uidentifier": "ac3d69d5b1624354b0bda08e72c90086"
      },
      {
        "name": "Cafeteria Vieja Escuela",
        "street_address": "Plaza Marlasca",
        "latitude": "40.63223",
        "longitude": "-3.16488",
        "city_name": "Guadalajara",
        "popularity_rate": "2.61",
        "satisfaction_rate": null,
        "last_avg_price": "15",
        "total_reviews": "0",
        "uidentifier": "da4931eb72be432d9e152c9599431a02"
      },
      {
        "name": "Bar Sa Tanca",
        "street_address": "Calle Vaquet",
        "latitude": "39.6538946",
        "longitude": "2.4809149",
        "city_name": "Estellencs",
        "popularity_rate": "6.34",
        "satisfaction_rate": "5.75",
        "last_avg_price": "11",
        "total_reviews": "1",
        "uidentifier": "a37a77f193134896b914114819d1e933"
      },
      {
        "name": "Meson la Cuesta",
        "street_address": "Calle Amistad",
        "latitude": "42.3338",
        "longitude": "-1.935325",
        "city_name": "San Adrián",
        "popularity_rate": "3.42",
        "satisfaction_rate": null,
        "last_avg_price": "15.8",
        "total_reviews": "0",
        "uidentifier": "293153e092ce494789ba0e26d699f9ac"
      },
      {
        "name": "Pizzeria Oço",
        "street_address": "Avenida Castiero",
        "latitude": "42.702751",
        "longitude": "0.793752",
        "city_name": "Vielha e Mijaran",
        "popularity_rate": "5.59",
        "satisfaction_rate": "7.5",
        "last_avg_price": "18",
        "total_reviews": "5",
        "uidentifier": "cf8e1767b9ad42b1bd594d50006ff743"
      },
      {
        "name": "Ciao Pizza Company",
        "street_address": "Calle Joaquin Ruano",
        "latitude": "38.09572",
        "longitude": "-3.63384",
        "city_name": "Linares",
        "popularity_rate": "5.16",
        "satisfaction_rate": null,
        "last_avg_price": "15.9",
        "total_reviews": "0",
        "uidentifier": "65f26ab5e8d741ecb2debd1ad0fd5ec4"
      },
      {
        "name": "Nuevo",
        "street_address": "Nuevo Restaurante Hermanos Urquiza Navas, España",
        "latitude": "37.1736111",
        "longitude": "-3.5983333",
        "city_name": "Granada",
        "popularity_rate": "6.52",
        "satisfaction_rate": "8.13",
        "last_avg_price": "7.9",
        "total_reviews": "10",
        "uidentifier": "c27011423324465283dd29b67edf6453"
      },
      {
        "name": "Ajoblanco Restaurant Tapas&Cocktails",
        "street_address": "Calle de Tuset",
        "latitude": "41.3959945",
        "longitude": "2.1520718",
        "city_name": "Barcelona",
        "popularity_rate": "7.58",
        "satisfaction_rate": "7.94",
        "last_avg_price": "28.43",
        "total_reviews": "21",
        "uidentifier": "6fd962772b234c6f944080a1aeefae24"
      },
      {
        "name": "L'Ermita",
        "street_address": "Calle de los desaparidos",
        "latitude": "40.068333",
        "longitude": "-0.523876",
        "city_name": "Montanejos",
        "popularity_rate": "1.62",
        "satisfaction_rate": null,
        "last_avg_price": "12.5",
        "total_reviews": "0",
        "uidentifier": "cbb4d5fec7b14e8b80551632be06be83"
      },
      {
        "name": "Restaurante La Pepenúltima",
        "street_address": "Plaza de Rogelio Enriquez",
        "latitude": "40.5191946",
        "longitude": "-3.7771059",
        "city_name": "Madrid",
        "popularity_rate": "6.11",
        "satisfaction_rate": null,
        "last_avg_price": "10",
        "total_reviews": "0",
        "uidentifier": "8632b840dc8844f6a372c21f746dcd73"
      },
      {
        "name": "Pizzeria La Venezia",
        "street_address": "Calle del Obispo Rey Redondo",
        "latitude": "28.487894",
        "longitude": "-16.315413",
        "city_name": "San Cristóbal de La Laguna",
        "popularity_rate": "5.59",
        "satisfaction_rate": null,
        "last_avg_price": "19.4",
        "total_reviews": "0",
        "uidentifier": "dfb1a515728f45ba8f83546168220e0c"
      },
      {
        "name": "Hotel Canyelles Platja",
        "street_address": "Avenida Diaz Pacheco",
        "latitude": "42.247692",
        "longitude": "3.195543",
        "city_name": "Roses",
        "popularity_rate": "4.68",
        "satisfaction_rate": null,
        "last_avg_price": "120",
        "total_reviews": "0",
        "uidentifier": "8c1172b0236145c08b80e838b285b6fc"
      },
      {
        "name": "Triangulo 2011",
        "street_address": "Calle Cristofol Colom",
        "latitude": "41.664403",
        "longitude": "1.857659",
        "city_name": "Sant Vicenç de Castellet",
        "popularity_rate": "6.31",
        "satisfaction_rate": null,
        "last_avg_price": "50",
        "total_reviews": "0",
        "uidentifier": "e5069d31255544eb80f7fd0e37240f26"
      },
      {
        "name": "Restaurante BROA",
        "street_address": "Avenida de Rosalía de Castro",
        "latitude": "42.8758516",
        "longitude": "-8.5495656",
        "city_name": "Santiago de Compostela",
        "popularity_rate": "3.59",
        "satisfaction_rate": null,
        "last_avg_price": "10.3",
        "total_reviews": "0",
        "uidentifier": "496038e7f61b44e898731eca0c297722"
      },
      {
        "name": "Starbucks",
        "street_address": "Rambla de Cataluna",
        "latitude": "41.388031",
        "longitude": "2.16786",
        "city_name": "Barcelona",
        "popularity_rate": "3.66",
        "satisfaction_rate": null,
        "last_avg_price": "8",
        "total_reviews": "1",
        "uidentifier": "9baf794eadd34169a4d7c397f7fa874d"
      },
      {
        "name": "TIERRA TRÁGAME",
        "street_address": "Pasaje de Tasso",
        "latitude": "41.3968119",
        "longitude": "2.1743288",
        "city_name": "Barcelona",
        "popularity_rate": "6.65",
        "satisfaction_rate": "7.17",
        "last_avg_price": "7.2",
        "total_reviews": "0",
        "uidentifier": "4d1dce53f1ea48ed9b6a8f9f982db5e4"
      },
      {
        "name": "El Forn",
        "street_address": "Al Calle Julivert",
        "latitude": "41.286903",
        "longitude": "1.097279",
        "city_name": "Mont-ral",
        "popularity_rate": "4.52",
        "satisfaction_rate": null,
        "last_avg_price": "5",
        "total_reviews": "0",
        "uidentifier": "8b5ad20e0bf848558101a509d0659e72"
      },
      {
        "name": "Bobal Resto Bar",
        "street_address": "Plaza Canovas del Castillo",
        "latitude": "39.467987",
        "longitude": "-0.365401",
        "city_name": "Valencia",
        "popularity_rate": "7.27",
        "satisfaction_rate": null,
        "last_avg_price": "17.9",
        "total_reviews": "-1",
        "uidentifier": "2447702cd8e349fabe6107b1cea4e9b9"
      },
      {
        "name": "Pizza Al Pezzo",
        "street_address": "Gran vía de les Corts Catalanes",
        "latitude": "41.4063265",
        "longitude": "2.190354",
        "city_name": "Barcelona",
        "popularity_rate": "6.14",
        "satisfaction_rate": null,
        "last_avg_price": "18",
        "total_reviews": "0",
        "uidentifier": "0f0f0b91b892418cacc8365f911a636f"
      },
      {
        "name": "Echale Huevos",
        "street_address": "Plaza la Concepcion",
        "latitude": "28.49029",
        "longitude": "-16.31937",
        "city_name": "San Cristóbal de La Laguna",
        "popularity_rate": "4.36",
        "satisfaction_rate": "5.45",
        "last_avg_price": "15",
        "total_reviews": "1",
        "uidentifier": "734e2519f0af44deadc7929d0143aebc"
      },
      {
        "name": "Barbacana",
        "street_address": "Calle Gines de Castro y Alvarez",
        "latitude": "28.95911",
        "longitude": "-13.547781",
        "city_name": "Arrecife",
        "popularity_rate": "6.47",
        "satisfaction_rate": "9.13",
        "last_avg_price": "20.5",
        "total_reviews": "19",
        "uidentifier": "32855c010395423f91b7efb1efa8f08c"
      },
      {
        "name": "El Ratito Berria",
        "street_address": "Colón de Larreátegui Kalea",
        "latitude": "43.26303",
        "longitude": "-2.930532",
        "city_name": "Bilbao",
        "popularity_rate": "6.22",
        "satisfaction_rate": null,
        "last_avg_price": "19.1",
        "total_reviews": "0",
        "uidentifier": "c02929bcdb6f4e8d90b782710f2fcd21"
      },
      {
        "name": "La Tía Juana",
        "street_address": "Avenida el Guirnei",
        "latitude": "38.490253",
        "longitude": "-0.779277",
        "city_name": "Petrer",
        "popularity_rate": "6.69",
        "satisfaction_rate": null,
        "last_avg_price": "17.75",
        "total_reviews": "0",
        "uidentifier": "5faac14c9b5746da9077b7f4c6dad318"
      },
      {
        "name": "The Chippy",
        "street_address": "Calle Franciso De Quevedo",
        "latitude": "38.1264",
        "longitude": "-0.67959",
        "city_name": "Formentera del Segura",
        "popularity_rate": "6.8",
        "satisfaction_rate": "7",
        "last_avg_price": "15",
        "total_reviews": "1",
        "uidentifier": "e9fc8f579a8e40f8a159a2b00e070098"
      },
      {
        "name": "Coffee Republic",
        "street_address": "Coffee RepublicEspaña",
        "latitude": "28.4521831",
        "longitude": "-13.8693139",
        "city_name": "Puerto del Rosario",
        "popularity_rate": "4.65",
        "satisfaction_rate": null,
        "last_avg_price": "9.39",
        "total_reviews": "0",
        "uidentifier": "ffb813d79c4648dc96d8cbfaf3f09c78"
      },
      {
        "name": "Gastro By Lizarran Ocana",
        "street_address": "Calle Palacio",
        "latitude": "39.96098",
        "longitude": "-3.49912",
        "city_name": "La Puebla de Montalbán",
        "popularity_rate": "1.86",
        "satisfaction_rate": null,
        "last_avg_price": "20",
        "total_reviews": "0",
        "uidentifier": "f638ca3652694f34a5792ee6d96eec0e"
      },
      {
        "name": "La Masia",
        "street_address": "Onze De Setembre",
        "latitude": "42.163422",
        "longitude": "1.85588",
        "city_name": "Cercs",
        "popularity_rate": "3.53",
        "satisfaction_rate": null,
        "last_avg_price": "36.41",
        "total_reviews": "0",
        "uidentifier": "01e916c07eff49098a12979d85be3208"
      },
      {
        "name": "La Cocina de Beatriz",
        "street_address": "Calle Charles Darwin",
        "latitude": "37.4022793",
        "longitude": "-6.0066374",
        "city_name": "Sevilla",
        "popularity_rate": "6.48",
        "satisfaction_rate": "8.75",
        "last_avg_price": "12.5",
        "total_reviews": "6",
        "uidentifier": "2b30a63ab89640c69cfbf7da9533a4f4"
      },
      {
        "name": "Restaurante El Acebo(Cerrado Por Obras) Hasta El 16 De Abril",
        "street_address": "Plaza del Sol",
        "latitude": "40.3427829",
        "longitude": "-3.8260518",
        "city_name": "Alcorcón",
        "popularity_rate": "7.26",
        "satisfaction_rate": "8.55",
        "last_avg_price": "10",
        "total_reviews": "4",
        "uidentifier": "771ad2612c7440af832e206e6d83173d"
      },
      {
        "name": "DETACON Healthy Food N' Drinks",
        "street_address": "Calle Argensolas",
        "latitude": "42.1360917",
        "longitude": "-0.4063145",
        "city_name": "Huesca",
        "popularity_rate": "6.82",
        "satisfaction_rate": "5.63",
        "last_avg_price": "56.08",
        "total_reviews": "0",
        "uidentifier": "c6be6421caa248c587471ca4a4518601"
      },
      {
        "name": "Bodega Del Tapeo",
        "street_address": "Calle de Murillo",
        "latitude": "36.74842",
        "longitude": "-3.01335",
        "city_name": "Adra",
        "popularity_rate": "5.85",
        "satisfaction_rate": null,
        "last_avg_price": "15.79",
        "total_reviews": "0",
        "uidentifier": "95f2370e0ae349a8b79c1aef3cc5feb4"
      },
      {
        "name": "Chennai Masala Dosa",
        "street_address": "Calle de Galileu",
        "latitude": "41.3862554",
        "longitude": "2.1312311",
        "city_name": "Barcelona",
        "popularity_rate": "6.76",
        "satisfaction_rate": "8.9",
        "last_avg_price": "60",
        "total_reviews": "12",
        "uidentifier": "96b0eadee5a840b4bd875a6af29bb88b"
      },
      {
        "name": "Bar Marinero",
        "street_address": "Lugar Muelle Martinez Catena",
        "latitude": "37.20311",
        "longitude": "-7.32883",
        "city_name": "Isla Cristina",
        "popularity_rate": "3.84",
        "satisfaction_rate": "5.75",
        "last_avg_price": "15.7",
        "total_reviews": "1",
        "uidentifier": "440539cf306f45eab70cfc3e51ac9be4"
      },
      {
        "name": "Bodega Jerezana",
        "street_address": "Avenida de la Paz",
        "latitude": "36.5781765",
        "longitude": "-6.2259803",
        "city_name": "El Puerto de Santa María",
        "popularity_rate": "6.66",
        "satisfaction_rate": "9.14",
        "last_avg_price": "15",
        "total_reviews": "9",
        "uidentifier": "d32b51bf52304a84842d5dc2fe011c19"
      },
      {
        "name": "Vicen Playa",
        "street_address": "Paseo Maritimoo de Poniente",
        "latitude": "36.683216",
        "longitude": "-4.446156",
        "city_name": "Málaga",
        "popularity_rate": "5.43",
        "satisfaction_rate": null,
        "last_avg_price": "26.25",
        "total_reviews": "0",
        "uidentifier": "22ef1a5b5dba4f1a8e89bc7bb26797d3"
      },
      {
        "name": "TIERRA TRÁGAME",
        "street_address": "Pasaje de Tasso",
        "latitude": "41.3968119",
        "longitude": "2.1743288",
        "city_name": "Barcelona",
        "popularity_rate": "6.65",
        "satisfaction_rate": "7.17",
        "last_avg_price": "7.2",
        "total_reviews": "0",
        "uidentifier": "4d1dce53f1ea48ed9b6a8f9f982db5e4"
      },
      {
        "name": "Sa Clau Cuitadella",
        "street_address": "Port de cuitadella",
        "latitude": "40.00054",
        "longitude": "3.833903",
        "city_name": "Ciutadella de Menorca",
        "popularity_rate": "4.24",
        "satisfaction_rate": null,
        "last_avg_price": "20",
        "total_reviews": "0",
        "uidentifier": "5d73e8debb47411288c9aeeb7fd444cd"
      },
      {
        "name": "Albergue-Restaurante Casa Cruceiro de Ferreiros",
        "street_address": null,
        "latitude": "42.7835445",
        "longitude": "-7.5332697",
        "city_name": "Lugo",
        "popularity_rate": "5.65",
        "satisfaction_rate": null,
        "last_avg_price": "15",
        "total_reviews": "0",
        "uidentifier": "d7c4c977a6664973913f6f3e8e8ef6bd"
      },
      {
        "name": "Bar Los Gutis",
        "street_address": "Calle Alegria",
        "latitude": "40.38497",
        "longitude": "-3.73259",
        "city_name": "Madrid",
        "popularity_rate": "5.35",
        "satisfaction_rate": null,
        "last_avg_price": "10",
        "total_reviews": "0",
        "uidentifier": "c1319f3889154265b3447a84be532e1c"
      },
      {
        "name": "Obelix",
        "street_address": "Calle de losApostoles 3",
        "latitude": "37.77724",
        "longitude": "-3.79854",
        "city_name": "Jaén",
        "popularity_rate": "2.78",
        "satisfaction_rate": null,
        "last_avg_price": "24.4",
        "total_reviews": "0",
        "uidentifier": "3483c030a6e14c9e8769caf787887879"
      },
      {
        "name": "Pastisseria Massana",
        "street_address": "Plaza Major",
        "latitude": "41.99446",
        "longitude": "1.51834",
        "city_name": "Solsona",
        "popularity_rate": "5.36",
        "satisfaction_rate": null,
        "last_avg_price": "52.5",
        "total_reviews": "0",
        "uidentifier": "2d348dffb83a409c94f5b955e98a673c"
      },
      {
        "name": "Restaurante la Alacena",
        "street_address": "Avenida de Andalucía",
        "latitude": "37.5842013",
        "longitude": "-4.6424763",
        "city_name": "Montilla",
        "popularity_rate": "6.2",
        "satisfaction_rate": "5.3",
        "last_avg_price": "17.8",
        "total_reviews": "1",
        "uidentifier": "355471fb6cd847be824ecbefb2ff7c1a"
      },
      {
        "name": "VengaYa",
        "street_address": "Calle del Teatro",
        "latitude": "38.3456878",
        "longitude": "-0.486726",
        "city_name": "Alicante",
        "popularity_rate": "5.8",
        "satisfaction_rate": "7.97",
        "last_avg_price": "10",
        "total_reviews": "24",
        "uidentifier": "4b468cdbffd84d97ae4de69d3290347d"
      },
      {
        "name": "El Sitio Bar",
        "street_address": "Calle Bailén",
        "latitude": "38.3455711",
        "longitude": "-0.4845988",
        "city_name": "Alicante",
        "popularity_rate": "6",
        "satisfaction_rate": null,
        "last_avg_price": "17.5",
        "total_reviews": "2",
        "uidentifier": "7b2a7ca47382485781c073d5023761f6"
      },
      {
        "name": "La Tarantela",
        "street_address": "Calle Arroyo",
        "latitude": "37.3946579",
        "longitude": "-5.9814566",
        "city_name": "Sevilla",
        "popularity_rate": "6.27",
        "satisfaction_rate": "4.35",
        "last_avg_price": "19.4",
        "total_reviews": "0",
        "uidentifier": "02baa1e028424fdd94ecc50e5d46f7ca"
      },
      {
        "name": "Restaurante La Caracola",
        "street_address": "Calle Paseo d'es Port",
        "latitude": "39.3613515",
        "longitude": "3.2101425",
        "city_name": "Santanyí",
        "popularity_rate": "6.35",
        "satisfaction_rate": "8.45",
        "last_avg_price": "23.1",
        "total_reviews": "8",
        "uidentifier": "37dbeefe91d34bd092d63c74a54a1e7a"
      },
      {
        "name": "M2M noodles",
        "street_address": "Avenida del Primat Reig",
        "latitude": "39.4843816",
        "longitude": "-0.3632982",
        "city_name": "Valencia",
        "popularity_rate": "6.5",
        "satisfaction_rate": "8.13",
        "last_avg_price": "18.1",
        "total_reviews": "3",
        "uidentifier": "76e014af1f604ad0b92d281362077f5e"
      },
      {
        "name": "Pizzeria Joan",
        "street_address": "null",
        "latitude": "39.57282",
        "longitude": "3.37369",
        "city_name": "Son Servera",
        "popularity_rate": "4.88",
        "satisfaction_rate": null,
        "last_avg_price": "19.4",
        "total_reviews": "0",
        "uidentifier": "73ec237940a4461ba032b4355a00cdcb"
      },
      {
        "name": "El árbol blanco playa",
        "street_address": "El Árbol Blanco Playa, de Velilla 1 Almu",
        "latitude": "36.7322907",
        "longitude": "-3.6734653",
        "city_name": "Salobreña",
        "popularity_rate": "6.17",
        "satisfaction_rate": "6",
        "last_avg_price": "18.1",
        "total_reviews": "1",
        "uidentifier": "3764fe5ffc9b42b094ecb2e088e729cb"
      },
      {
        "name": "Begoñako Batzokia",
        "street_address": "Gabriel Aresti Hiribidea",
        "latitude": "43.2564927",
        "longitude": "-2.908105",
        "city_name": "Bilbao",
        "popularity_rate": "6.79",
        "satisfaction_rate": "8.8",
        "last_avg_price": "15",
        "total_reviews": "11",
        "uidentifier": "a2447089f6324311ab4d3a59c0ac86a7"
      },
      {
        "name": "L'Amagat Cafè",
        "street_address": "Calle de Mascaró",
        "latitude": "41.4243365",
        "longitude": "2.1749178",
        "city_name": "Barcelona",
        "popularity_rate": "6.79",
        "satisfaction_rate": null,
        "last_avg_price": "5",
        "total_reviews": "0",
        "uidentifier": "27f40e65bdcd499a8dc9a2850adf5d82"
      },
      {
        "name": "Granier",
        "street_address": "Calle de Prat de la Riba",
        "latitude": "41.22063",
        "longitude": "1.53561",
        "city_name": "El Vendrell",
        "popularity_rate": "3.65",
        "satisfaction_rate": null,
        "last_avg_price": "5",
        "total_reviews": "0",
        "uidentifier": "4b217eaab4814dfabf0db83bc2f3b96e"
      },
      {
        "name": "Martín Rivera",
        "street_address": "Avenida AVíación Española",
        "latitude": "37.8037962",
        "longitude": "-0.8306829",
        "city_name": "San Javier",
        "popularity_rate": "5.98",
        "satisfaction_rate": null,
        "last_avg_price": "5",
        "total_reviews": "0",
        "uidentifier": "44da31f8483e42d3bcc0a0975cf6dcd8"
      },
      {
        "name": "Bar Paco",
        "street_address": "Paseo de Canalejas",
        "latitude": "40.9628966",
        "longitude": "-5.6584144",
        "city_name": "Salamanca",
        "popularity_rate": "5.11",
        "satisfaction_rate": "6.25",
        "last_avg_price": "20.8",
        "total_reviews": "0",
        "uidentifier": "bdd96d575ea241d2abcd8aba9c99d973"
      },
      {
        "name": "Cappuccino Paseo Marítimo",
        "street_address": "Paseo Marítim",
        "latitude": "39.5690814",
        "longitude": "2.6348858",
        "city_name": "Palma",
        "popularity_rate": "7.19",
        "satisfaction_rate": "8.08",
        "last_avg_price": "25",
        "total_reviews": "1",
        "uidentifier": "d1efebb86899436a83cdc2f294686154"
      },
      {
        "name": "Restaurante Bacchus",
        "street_address": "Travesera de les Cansalades",
        "latitude": "38.7538",
        "longitude": "0.17723",
        "city_name": "Jávea",
        "popularity_rate": "6.93",
        "satisfaction_rate": "8.75",
        "last_avg_price": "15",
        "total_reviews": "3",
        "uidentifier": "d15fd098c8254dc2b7449fa3fdeda7c0"
      },
      {
        "name": "Mono Thai",
        "street_address": "Calle Jardin_",
        "latitude": "38.645724",
        "longitude": "0.061494",
        "city_name": "Calp",
        "popularity_rate": "5.09",
        "satisfaction_rate": null,
        "last_avg_price": "17.25",
        "total_reviews": "0",
        "uidentifier": "8403d6e1e6824e28a9468ab23f652c61"
      },
      {
        "name": "Pincha Cabra",
        "street_address": "Calle la Milagrosa",
        "latitude": "28.7387578",
        "longitude": "-13.8686259",
        "city_name": "La Oliva",
        "popularity_rate": "7.05",
        "satisfaction_rate": "6.43",
        "last_avg_price": "16.57",
        "total_reviews": "2",
        "uidentifier": "6f3159709de74221a475c82483327edb"
      },
      {
        "name": "La Esquina de San Miguel",
        "street_address": "Plaza de San Miguel",
        "latitude": "40.4156108",
        "longitude": "-3.7095808",
        "city_name": "Madrid",
        "popularity_rate": "6.01",
        "satisfaction_rate": "6.08",
        "last_avg_price": "10.05",
        "total_reviews": "4",
        "uidentifier": "378a3ca48bea457e8bbcf4f9c79ed006"
      },
      {
        "name": "Bar Agustín",
        "street_address": "Calle de Ferlandina",
        "latitude": "41.3817301",
        "longitude": "2.1648427",
        "city_name": "Barcelona",
        "popularity_rate": "5.97",
        "satisfaction_rate": "7.5",
        "last_avg_price": "13.85",
        "total_reviews": "2",
        "uidentifier": "1c5a0f402383471ea9952b8ce9a3bbd1"
      },
      {
        "name": "El Casino",
        "street_address": "Avenida Sevilla",
        "latitude": "37.5895833",
        "longitude": "-5.7311417",
        "city_name": "Tocina",
        "popularity_rate": "3.74",
        "satisfaction_rate": null,
        "last_avg_price": "14.2",
        "total_reviews": "0",
        "uidentifier": "6d4927e0a89b411d87d8e467a523d120"
      },
      {
        "name": "McDonald's",
        "street_address": "Calle Alday",
        "latitude": "43.425678",
        "longitude": "-3.837261",
        "city_name": "Camargo",
        "popularity_rate": "6.39",
        "satisfaction_rate": "7.09",
        "last_avg_price": "7",
        "total_reviews": "37",
        "uidentifier": "c132b9dc6f9447018320deec3e1dd5ff"
      },
      {
        "name": "Restaurante La Cuchara de Tony Montes (Centro)",
        "street_address": "Calle Fray Luis de Granada",
        "latitude": "37.8885505",
        "longitude": "-4.7839347",
        "city_name": "Córdoba",
        "popularity_rate": "7.1",
        "satisfaction_rate": "8.88",
        "last_avg_price": "31",
        "total_reviews": "2",
        "uidentifier": "0b6f24fe332a41d2a195abcabbf0df35"
      },
      {
        "name": "Restaurante El Siete",
        "street_address": "Calle Badajoz",
        "latitude": "36.485824",
        "longitude": "-4.990905",
        "city_name": "Marbella",
        "popularity_rate": "6.3",
        "satisfaction_rate": "6.25",
        "last_avg_price": "105",
        "total_reviews": "1",
        "uidentifier": "bb39bb7733d14882a2234b028cf10de1"
      },
      {
        "name": "Bar Es Fasser",
        "street_address": "Carretera de Ciutat",
        "latitude": "39.61744",
        "longitude": "2.9757925",
        "city_name": "Lloret de Vistalegre",
        "popularity_rate": "5.49",
        "satisfaction_rate": "6",
        "last_avg_price": "15",
        "total_reviews": "5",
        "uidentifier": "178dccec86b340a4b68fa5577fb7d9ee"
      },
      {
        "name": "Cerveceria Las Rosas",
        "street_address": "Restaurante Las Rosas Local A, YA7 Centro Comerc",
        "latitude": "40.4183227",
        "longitude": "-3.6214636",
        "city_name": "Madrid",
        "popularity_rate": "4.73",
        "satisfaction_rate": "4.43",
        "last_avg_price": "15",
        "total_reviews": "2",
        "uidentifier": "1e0cef42da8c41d9bf8d7fbd9ab2f8cf"
      },
      {
        "name": "Restaurante El Anticuario",
        "street_address": "Plaza del Canto Redondo",
        "latitude": "40.3073517",
        "longitude": "-3.7289909",
        "city_name": "Getafe",
        "popularity_rate": "5.39",
        "satisfaction_rate": "7.65",
        "last_avg_price": "15",
        "total_reviews": "3",
        "uidentifier": "02dc90016f534b31bd576253d6afb3fb"
      },
      {
        "name": "Chiringuito Rafael",
        "street_address": "PLAYA DE LA SALUD",
        "latitude": "36.5993879",
        "longitude": "-4.510231",
        "city_name": "Benalmádena",
        "popularity_rate": "7.02",
        "satisfaction_rate": "8.45",
        "last_avg_price": "25",
        "total_reviews": "7",
        "uidentifier": "fb1254281f824c0285aed4b5ec974c2a"
      },
      {
        "name": "CafeLab Casas del Rey",
        "street_address": "Calle Intendencia_ 10",
        "latitude": "37.601654",
        "longitude": "-0.987814",
        "city_name": "Cartagena",
        "popularity_rate": "5.85",
        "satisfaction_rate": null,
        "last_avg_price": "5",
        "total_reviews": "0",
        "uidentifier": "15413891d8144dc89db6dc7207c4ae47"
      },
      {
        "name": "Caladero",
        "street_address": "Calle San Pancracio",
        "latitude": "36.540257",
        "longitude": "-4.624356",
        "city_name": "Fuengirola",
        "popularity_rate": "4.94",
        "satisfaction_rate": null,
        "last_avg_price": "22.25",
        "total_reviews": "0",
        "uidentifier": "5c6b11805f994ae5a2125f774b466c2e"
      },
      {
        "name": "Ruby's Mallorca",
        "street_address": "Calle Martin Ros Garcia",
        "latitude": "39.512665",
        "longitude": "2.540636",
        "city_name": "Calvià",
        "popularity_rate": "5.65",
        "satisfaction_rate": null,
        "last_avg_price": "7.45",
        "total_reviews": "0",
        "uidentifier": "a6689f1c1b6a45128db16b61acb6db61"
      },
      {
        "name": "Sa Gelateria",
        "street_address": "Calle d'En Serra",
        "latitude": "39.8531366",
        "longitude": "3.1224044",
        "city_name": "Alcúdia",
        "popularity_rate": "5.86",
        "satisfaction_rate": null,
        "last_avg_price": "5",
        "total_reviews": "-1",
        "uidentifier": "9c447c5152d541c4aa962c2d269a5b07"
      },
      {
        "name": "Eureka",
        "street_address": "Avenida Punta Arabi",
        "latitude": "38.99936",
        "longitude": "1.578754",
        "city_name": "Santa Eulalia del Río",
        "popularity_rate": "5.31",
        "satisfaction_rate": null,
        "last_avg_price": "5",
        "total_reviews": "0",
        "uidentifier": "3eda4bac42344ad8bde0cab3042bc28d"
      },
      {
        "name": "Casa Lola Strachan",
        "street_address": "Calle Strachan",
        "latitude": "36.7197",
        "longitude": "-4.420501",
        "city_name": "Málaga",
        "popularity_rate": "6.34",
        "satisfaction_rate": "7.74",
        "last_avg_price": "19.4",
        "total_reviews": "9",
        "uidentifier": "ed349088882c45fd9060f9383bbb0299"
      },
      {
        "name": "Cerveceria 100 Montaditos",
        "street_address": "Centro Comercial L’aljub Calle Jacarilla Local A-23",
        "latitude": "38.262661",
        "longitude": "-0.7211101",
        "city_name": "Elche",
        "popularity_rate": "5.45",
        "satisfaction_rate": "8",
        "last_avg_price": "10",
        "total_reviews": "5",
        "uidentifier": "2159154590924609a2f8ca9059da4c3b"
      },
      {
        "name": "The Pork Factory",
        "street_address": "Calle General Vives",
        "latitude": "28.1386",
        "longitude": "-15.43124",
        "city_name": "Las Palmas de Gran Canaria",
        "popularity_rate": "4.27",
        "satisfaction_rate": null,
        "last_avg_price": "15",
        "total_reviews": "0",
        "uidentifier": "3dd21fd078364d09863e1c9f8be7f2ad"
      },
      {
        "name": "Casa Paula",
        "street_address": "Calle Industria #",
        "latitude": "39.46543",
        "longitude": "-0.34305",
        "city_name": "Valencia",
        "popularity_rate": "5.89",
        "satisfaction_rate": null,
        "last_avg_price": "15",
        "total_reviews": "0",
        "uidentifier": "c4880f639c9442648cabb8ae494ebfbd"
      },
      {
        "name": "Your Plaice or Mine",
        "street_address": "Your Plaice Or Mine Avenida Rey Juan Carlos,63 Centro Commerci",
        "latitude": "38.744237",
        "longitude": "-0.018952",
        "city_name": "Xaló",
        "popularity_rate": "6.5",
        "satisfaction_rate": "5.83",
        "last_avg_price": "11.45",
        "total_reviews": "3",
        "uidentifier": "112d1387f6ef4f8596fc841116dbda2a"
      },
      {
        "name": "ASADOR ARAMENDI",
        "street_address": "Arteaga Auzoa, -Bizkaia",
        "latitude": "43.2863",
        "longitude": "-2.87084",
        "city_name": "Zamudio",
        "popularity_rate": "5.6",
        "satisfaction_rate": null,
        "last_avg_price": "15.6",
        "total_reviews": "0",
        "uidentifier": "8c0d7321545e4b36a782e5a22d33076c"
      },
      {
        "name": "Casa Julián",
        "street_address": "Avenida de la Pedriza",
        "latitude": "40.7422899",
        "longitude": "-3.88319",
        "city_name": "Manzanares el Real",
        "popularity_rate": "6.19",
        "satisfaction_rate": "9.6",
        "last_avg_price": "7.2",
        "total_reviews": "3",
        "uidentifier": "12cac173a65c4c439506317a6b15a0ab"
      },
      {
        "name": "Bar El Perola",
        "street_address": "Plaza de la Constitución",
        "latitude": "28.099813",
        "longitude": "-15.7004013",
        "city_name": "Agaete",
        "popularity_rate": "6.69",
        "satisfaction_rate": "9.6",
        "last_avg_price": "15",
        "total_reviews": "6",
        "uidentifier": "d360c728f26243d8bd053de014ba9baa"
      },
      {
        "name": "El Veril",
        "street_address": "Avenida Virgen del Mar",
        "latitude": "29.2306274",
        "longitude": "-13.5038602",
        "city_name": "Santa María de Guía de Gran Canaria",
        "popularity_rate": "4.32",
        "satisfaction_rate": "6.5",
        "last_avg_price": "15",
        "total_reviews": "2",
        "uidentifier": "3457e7325d4442e695ccc50acc5c5065"
      },
      {
        "name": "Nord-Sud",
        "street_address": "Avenue Carles Fages de Climent",
        "latitude": "42.243935",
        "longitude": "3.12538",
        "city_name": "Castelló d'Empúries",
        "popularity_rate": "2.55",
        "satisfaction_rate": null,
        "last_avg_price": "120",
        "total_reviews": "0",
        "uidentifier": "a4cea635205a4982a09f38eb3b5b5471"
      },
      {
        "name": "Buns & Bones San Bernardo",
        "street_address": "Calle de San Bernardo",
        "latitude": "40.4222449",
        "longitude": "-3.7076288",
        "city_name": "Madrid",
        "popularity_rate": "6.66",
        "satisfaction_rate": null,
        "last_avg_price": "19",
        "total_reviews": "0",
        "uidentifier": "6bf1e4a2efba4ad1951319d8b54db005"
      },
      {
        "name": "El Bar del Cat",
        "street_address": "Travesía de Sant Antoni",
        "latitude": "41.40234",
        "longitude": "2.15447",
        "city_name": "Barcelona",
        "popularity_rate": "5.12",
        "satisfaction_rate": null,
        "last_avg_price": "10",
        "total_reviews": "0",
        "uidentifier": "29a72c807f6342c18e0ca0569b00f6af"
      },
      {
        "name": "Bar Aker",
        "street_address": "calle Particular de Arlamendi",
        "latitude": "43.32774",
        "longitude": "-3.01111",
        "city_name": "Getxo",
        "popularity_rate": "5.95",
        "satisfaction_rate": null,
        "last_avg_price": "15",
        "total_reviews": "0",
        "uidentifier": "cc3e1aba2a304bc5b3662710438be8ef"
      },
      {
        "name": "Restaurant Marina",
        "street_address": "Calle del Tarull",
        "latitude": "41.718215",
        "longitude": "2.9307308",
        "city_name": "Tossa de Mar",
        "popularity_rate": "6.54",
        "satisfaction_rate": "4.22",
        "last_avg_price": "14.5",
        "total_reviews": "1",
        "uidentifier": "582595a312ab4de0a22c0d15c9a690bd"
      },
      {
        "name": "Can Boneta",
        "street_address": "Calle de Balmes",
        "latitude": "41.393698",
        "longitude": "2.156661",
        "city_name": "Barcelona",
        "popularity_rate": "7.53",
        "satisfaction_rate": "8.83",
        "last_avg_price": "40",
        "total_reviews": "10",
        "uidentifier": "837a812b6dc94cd2a979673782f1f093"
      },
      {
        "name": "Pizzeria Listo",
        "street_address": "Calle de la Princesa Merce",
        "latitude": "38.3462332",
        "longitude": "-0.5041821",
        "city_name": "Alicante",
        "popularity_rate": "5.08",
        "satisfaction_rate": "8",
        "last_avg_price": "17",
        "total_reviews": "1",
        "uidentifier": "ff64f0cae2744140868d65ebb6da6fa6"
      },
      {
        "name": "Haagen dazs Torremolinos",
        "street_address": "Paseo Maritimoo Del Bajondillo",
        "latitude": "36.62249",
        "longitude": "-4.4951",
        "city_name": "Torremolinos",
        "popularity_rate": "3.4",
        "satisfaction_rate": null,
        "last_avg_price": "10",
        "total_reviews": "0",
        "uidentifier": "f36896faccd14b30a9056a589f453ab1"
      },
      {
        "name": "TAPAS 2.0 GASTROTASCA",
        "street_address": "Calle Felipe Espino",
        "latitude": "40.9634978",
        "longitude": "-5.6647101",
        "city_name": "Salamanca",
        "popularity_rate": "7.21",
        "satisfaction_rate": "8.72",
        "last_avg_price": "14.4",
        "total_reviews": "11",
        "uidentifier": "db0a9fc19e8a450fae60d27e61d752f9"
      },
      {
        "name": "La Despensa de Sariego",
        "street_address": "Carretera AS-267",
        "latitude": "43.39781",
        "longitude": "-5.56604",
        "city_name": "Sariego",
        "popularity_rate": "6.26",
        "satisfaction_rate": null,
        "last_avg_price": "22.1",
        "total_reviews": "0",
        "uidentifier": "ae5e121ea1cc4117853707fa097c2051"
      },
      {
        "name": "El Museo",
        "street_address": "Calle Verdiales",
        "latitude": "36.6202",
        "longitude": "-4.50476",
        "city_name": "Torremolinos",
        "popularity_rate": "5.76",
        "satisfaction_rate": null,
        "last_avg_price": "18",
        "total_reviews": "0",
        "uidentifier": "a63523e8e1e4478c977a94b9ff20cb2e"
      },
      {
        "name": "The Mad Monk",
        "street_address": "Calle Decano Higueras del Castillo",
        "latitude": "36.6140765",
        "longitude": "-4.5022545",
        "city_name": "Torremolinos",
        "popularity_rate": "6.22",
        "satisfaction_rate": "6.75",
        "last_avg_price": "7.9",
        "total_reviews": "1",
        "uidentifier": "3d6140a5447c45fdb47da0674bcdeda2"
      },
      {
        "name": "L'Amagat Cafè",
        "street_address": "Calle de Mascaró",
        "latitude": "41.4243365",
        "longitude": "2.1749178",
        "city_name": "Barcelona",
        "popularity_rate": "6.79",
        "satisfaction_rate": null,
        "last_avg_price": "5",
        "total_reviews": "0",
        "uidentifier": "27f40e65bdcd499a8dc9a2850adf5d82"
      },
      {
        "name": "Las Ballenas",
        "street_address": "Calle Artillería",
        "latitude": "43.5471659",
        "longitude": "-5.6658172",
        "city_name": "Gijón",
        "popularity_rate": "4.85",
        "satisfaction_rate": "7.25",
        "last_avg_price": "22.1",
        "total_reviews": "2",
        "uidentifier": "c5bccda590cf4ec3bb1c686b636348d9"
      }
    ]
  },
  {
    "name": "Large Segment",
    "size": 500,
    "uidentifier": "7e97a6e5b2164816b979a0946066c7b6",
    "restaruants": [
      {
        "name": "Fiji Beach Club",
        "street_address": "Paseo Maritino Adeje",
        "latitude": "28.084562",
        "longitude": "-16.736458",
        "city_name": "Arona",
        "popularity_rate": "4.79",
        "satisfaction_rate": null,
        "last_avg_price": "21.1",
        "total_reviews": "0",
        "uidentifier": "d99d72244f9c4457bbaa806b19c32a6f"
      },
      {
        "name": "Marisquería Moreno II",
        "street_address": "Carretera Antigua de Extremadura, km. 20.300",
        "latitude": "40.3117807",
        "longitude": "-3.890632",
        "city_name": "Móstoles",
        "popularity_rate": "7.52",
        "satisfaction_rate": "8.09",
        "last_avg_price": "23.1",
        "total_reviews": "38",
        "uidentifier": "2043a6b51fb142358058a10e29674a63"
      },
      {
        "name": "Universal",
        "street_address": "Avenida de las Playas",
        "latitude": "28.92318",
        "longitude": "-13.64085",
        "city_name": "Puerto del Carmen",
        "popularity_rate": "5.4",
        "satisfaction_rate": null,
        "last_avg_price": "15.4",
        "total_reviews": "0",
        "uidentifier": "5f9aec7c7a9a412ca2bfffa177bbc37e"
      },
      {
        "name": "El Rubio",
        "street_address": "Calle José Dorta Pérez",
        "latitude": "28.3755426",
        "longitude": "-16.7959816",
        "city_name": "Los Silos",
        "popularity_rate": "5.01",
        "satisfaction_rate": null,
        "last_avg_price": "23.1",
        "total_reviews": "-1",
        "uidentifier": "bd4874c8e3194ff1bf0530849fba6cc2"
      },
      {
        "name": "Restaurante El Siete",
        "street_address": "Calle Badajoz",
        "latitude": "36.485824",
        "longitude": "-4.990905",
        "city_name": "Marbella",
        "popularity_rate": "6.3",
        "satisfaction_rate": "6.25",
        "last_avg_price": "105",
        "total_reviews": "1",
        "uidentifier": "bb39bb7733d14882a2234b028cf10de1"
      },
      {
        "name": "Sidrería Tierra Astur Poniente",
        "street_address": "Calle de Mariano Pola",
        "latitude": "43.54114",
        "longitude": "-5.67513",
        "city_name": "Gijón",
        "popularity_rate": "7.64",
        "satisfaction_rate": "8.81",
        "last_avg_price": "22.1",
        "total_reviews": "84",
        "uidentifier": "d5ab5c855efc4354952ca74bd05b923b"
      },
      {
        "name": "El Retiro",
        "street_address": "Avenida de Los Alcázares",
        "latitude": "37.741974",
        "longitude": "-0.9488528",
        "city_name": "Torre-Pacheco",
        "popularity_rate": "5.59",
        "satisfaction_rate": "6.45",
        "last_avg_price": "17.2",
        "total_reviews": "1",
        "uidentifier": "4bff5ec10be140e4b1549f15cf06d0a7"
      },
      {
        "name": "Arte Nova",
        "street_address": "Calle Doctor Maranon",
        "latitude": "36.73838",
        "longitude": "-4.09774",
        "city_name": "Vélez-Málaga",
        "popularity_rate": "5.38",
        "satisfaction_rate": null,
        "last_avg_price": "7.9",
        "total_reviews": "0",
        "uidentifier": "0769ba5cea9d490c8b64ffd5b63feb58"
      },
      {
        "name": "Mesón Rio Seco",
        "street_address": "Calle Tejo P C",
        "latitude": "37.903024",
        "longitude": "-0.831117",
        "city_name": "Pilar de la Horadada",
        "popularity_rate": "7.79",
        "satisfaction_rate": "8.43",
        "last_avg_price": "23.1",
        "total_reviews": "8",
        "uidentifier": "d19e3c89599c4470bd409e34c01f5721"
      },
      {
        "name": "Forn d'en Jordi",
        "street_address": "Calle del Segre",
        "latitude": "42.3596563",
        "longitude": "1.6955077",
        "city_name": "Montellà i Martinet",
        "popularity_rate": "6.29",
        "satisfaction_rate": "9.43",
        "last_avg_price": "14.1",
        "total_reviews": "4",
        "uidentifier": "b1d512ebfadd444186e3bea751c2e999"
      },
      {
        "name": "Yabisah",
        "street_address": "Calle de Ramon Muntaner",
        "latitude": "38.9052",
        "longitude": "1.425974",
        "city_name": "Santa Eulalia del Río",
        "popularity_rate": "6.33",
        "satisfaction_rate": null,
        "last_avg_price": "10",
        "total_reviews": "0",
        "uidentifier": "bc1a6dcfb77f4905939a5d90f71636a3"
      },
      {
        "name": "Las Cuchis",
        "street_address": "Paseo de Las Cuchis Urbanización Rio Verde Playa",
        "latitude": "36.49557",
        "longitude": "-4.94371",
        "city_name": "Marbella",
        "popularity_rate": "5",
        "satisfaction_rate": null,
        "last_avg_price": "15",
        "total_reviews": "0",
        "uidentifier": "e319578a63ef451889f1fc59eb6f69b1"
      },
      {
        "name": "La Mechada",
        "street_address": "Plaza alcalde Bernardo Zambrana",
        "latitude": "37.38731",
        "longitude": "-5.910496",
        "city_name": "Umbrete",
        "popularity_rate": "3.97",
        "satisfaction_rate": null,
        "last_avg_price": "18.4",
        "total_reviews": "0",
        "uidentifier": "89fac1d50cca4feea430cfc8f02e794c"
      },
      {
        "name": "La Malvasia",
        "street_address": "Avenida de la Paz Loc 20",
        "latitude": "36.5781382",
        "longitude": "-6.225841",
        "city_name": "El Puerto de Santa María",
        "popularity_rate": "6.19",
        "satisfaction_rate": "8.09",
        "last_avg_price": "10",
        "total_reviews": "6",
        "uidentifier": "c52e65db9e31410398b511a3276171b6"
      },
      {
        "name": "Sol Y Mar",
        "street_address": "Calle Rin",
        "latitude": "41.1892674",
        "longitude": "1.6048057",
        "city_name": "Salou",
        "popularity_rate": "6.29",
        "satisfaction_rate": "6.8",
        "last_avg_price": "10.65",
        "total_reviews": "13",
        "uidentifier": "5f44586ba30749c5b6c8b5aadbb2fd4c"
      },
      {
        "name": "CafeLab Casas del Rey",
        "street_address": "Calle Intendencia_ 10",
        "latitude": "37.601654",
        "longitude": "-0.987814",
        "city_name": "Cartagena",
        "popularity_rate": "5.85",
        "satisfaction_rate": null,
        "last_avg_price": "5",
        "total_reviews": "0",
        "uidentifier": "15413891d8144dc89db6dc7207c4ae47"
      },
      {
        "name": "Bianco Café",
        "street_address": "Calle del Príncipe de Vergara",
        "latitude": "40.4423937",
        "longitude": "-3.6782366",
        "city_name": "Madrid",
        "popularity_rate": "5.57",
        "satisfaction_rate": "8.36",
        "last_avg_price": "5",
        "total_reviews": "7",
        "uidentifier": "a534b6fa3f3146da8b03674917f4dbcb"
      },
      {
        "name": "Mozzatura",
        "street_address": "Calle de la Ciutat de Quilmes",
        "latitude": "39.585556",
        "longitude": "2.649453",
        "city_name": "Palma",
        "popularity_rate": "6.77",
        "satisfaction_rate": "9.84",
        "last_avg_price": "12",
        "total_reviews": "4",
        "uidentifier": "5ec7f3460be4465a8fe9146b49dda643"
      },
      {
        "name": "Ceferino",
        "street_address": "Calle d'Andrade",
        "latitude": "41.4184973",
        "longitude": "2.2043155",
        "city_name": "Barcelona",
        "popularity_rate": "6.19",
        "satisfaction_rate": "8.4",
        "last_avg_price": "5",
        "total_reviews": "5",
        "uidentifier": "5f16bd1171924000b3324b07626c0a59"
      },
      {
        "name": "Krishná Indian Restaurant",
        "street_address": "Avenida del Rei Jaume I",
        "latitude": "39.512815",
        "longitude": "2.478332",
        "city_name": "Calvià",
        "popularity_rate": "6.98",
        "satisfaction_rate": null,
        "last_avg_price": "7.45",
        "total_reviews": "0",
        "uidentifier": "03399630281a478289a3c6b44e3b37b5"
      },
      {
        "name": "Restaurante Ein Prosit Bilbao",
        "street_address": "Zabalgune Plaza",
        "latitude": "43.2641667",
        "longitude": "-2.9313889",
        "city_name": "Bilbao",
        "popularity_rate": "6.87",
        "satisfaction_rate": "8.1",
        "last_avg_price": "19.1",
        "total_reviews": "16",
        "uidentifier": "25418746862b4d3499e84aa1b86048e2"
      },
      {
        "name": "La Terraza",
        "street_address": "Paseo Marítimo",
        "latitude": "43.3196153",
        "longitude": "-8.3585675",
        "city_name": "Cambre",
        "popularity_rate": "7.01",
        "satisfaction_rate": "7.75",
        "last_avg_price": "14.2",
        "total_reviews": "5",
        "uidentifier": "ff3b5b49ca864eb6a7be76c39eb50fd8"
      },
      {
        "name": "Universal",
        "street_address": "Avenida de las Playas",
        "latitude": "28.92318",
        "longitude": "-13.64085",
        "city_name": "Puerto del Carmen",
        "popularity_rate": "5.4",
        "satisfaction_rate": null,
        "last_avg_price": "15.4",
        "total_reviews": "0",
        "uidentifier": "5f9aec7c7a9a412ca2bfffa177bbc37e"
      },
      {
        "name": "Artza",
        "street_address": "Askatasun Hiribidea",
        "latitude": "43.418148",
        "longitude": "-2.7240164",
        "city_name": "Bermeo",
        "popularity_rate": "7.77",
        "satisfaction_rate": "8.19",
        "last_avg_price": "15",
        "total_reviews": "4",
        "uidentifier": "313e263ea2434c3e9b40f43e40d47256"
      },
      {
        "name": "L'Abadia de la Rambla",
        "street_address": "Rambla del Poble Nou",
        "latitude": "41.398331",
        "longitude": "2.20489",
        "city_name": "Barcelona",
        "popularity_rate": "5.19",
        "satisfaction_rate": null,
        "last_avg_price": "120",
        "total_reviews": "0",
        "uidentifier": "67e75b2bf561452da64253d8c98f8214"
      },
      {
        "name": "Contracoerent",
        "street_address": "Calle Mallorca",
        "latitude": "41.64478",
        "longitude": "2.74156",
        "city_name": "Malgrat de Mar",
        "popularity_rate": "1.57",
        "satisfaction_rate": null,
        "last_avg_price": "16.2",
        "total_reviews": "0",
        "uidentifier": "2a9a8d8ce490446b894d86320111827c"
      },
      {
        "name": "Mossegam",
        "street_address": "Carretera Malgrat",
        "latitude": "41.6763889",
        "longitude": "2.7802778",
        "city_name": "Blanes",
        "popularity_rate": "6.31",
        "satisfaction_rate": "8",
        "last_avg_price": "11",
        "total_reviews": "6",
        "uidentifier": "a2134b91d8b34de5874d3384a48b551b"
      },
      {
        "name": "Naranco",
        "street_address": "Calle Nueva",
        "latitude": "38.4781",
        "longitude": "-0.7955",
        "city_name": "Elda",
        "popularity_rate": "5.46",
        "satisfaction_rate": "4.07",
        "last_avg_price": "15",
        "total_reviews": "4",
        "uidentifier": "5c890937abcf4d079d02adfd5a328e97"
      },
      {
        "name": "Can Kenji",
        "street_address": "Calle del Rosselló",
        "latitude": "41.4004288",
        "longitude": "2.1663857",
        "city_name": "Barcelona",
        "popularity_rate": "8.3",
        "satisfaction_rate": "8.84",
        "last_avg_price": "23.55",
        "total_reviews": "13",
        "uidentifier": "67f8b421b207406b913d6ba0eb9ed21f"
      },
      {
        "name": "Gastro Bar Bella Vista",
        "street_address": "Paseo Sancho Abarca",
        "latitude": "42.5539767",
        "longitude": "-2.5844076",
        "city_name": "Laguardia",
        "popularity_rate": "6.74",
        "satisfaction_rate": "8.21",
        "last_avg_price": "20",
        "total_reviews": "0",
        "uidentifier": "bf8eaccab2e64af8b9972c478b0734fe"
      },
      {
        "name": "El Fornet",
        "street_address": "Avenida Diagonal",
        "latitude": "41.395016",
        "longitude": "2.154483",
        "city_name": "Barcelona",
        "popularity_rate": "5.79",
        "satisfaction_rate": null,
        "last_avg_price": "9.66",
        "total_reviews": "0",
        "uidentifier": "abb111efe61b4a92bee0b61d5e527b6d"
      },
      {
        "name": "The Pork Factory",
        "street_address": "Calle General Vives",
        "latitude": "28.1386",
        "longitude": "-15.43124",
        "city_name": "Las Palmas de Gran Canaria",
        "popularity_rate": "4.27",
        "satisfaction_rate": null,
        "last_avg_price": "15",
        "total_reviews": "0",
        "uidentifier": "3dd21fd078364d09863e1c9f8be7f2ad"
      },
      {
        "name": "Bar Guacamayo",
        "street_address": "Avenida del Arrabal",
        "latitude": "39.48815",
        "longitude": "-1.10362",
        "city_name": "Requena",
        "popularity_rate": "4.02",
        "satisfaction_rate": null,
        "last_avg_price": "15",
        "total_reviews": "0",
        "uidentifier": "9468664aa3c7404eaae9d487748dcee1"
      },
      {
        "name": "Sidreria Casa Pazos",
        "street_address": "Calle de Puerto Rico",
        "latitude": "43.5420742",
        "longitude": "-5.6983052",
        "city_name": "Gijón",
        "popularity_rate": "5.45",
        "satisfaction_rate": "9.67",
        "last_avg_price": "15",
        "total_reviews": "4",
        "uidentifier": "7183b025d7444d0598354f2f85bb5dc6"
      },
      {
        "name": "Il Versetto",
        "street_address": "Calle de Pablo Neruda",
        "latitude": "41.3256455",
        "longitude": "2.1043471",
        "city_name": "El Prat de Llobregat",
        "popularity_rate": "6.57",
        "satisfaction_rate": "7.3",
        "last_avg_price": "7.1",
        "total_reviews": "1",
        "uidentifier": "5122015aae33456e8a02a16e65d286ef"
      },
      {
        "name": "Bar Valentin.",
        "street_address": "Avenida Roncesvalles Orreagako Etorbieda",
        "latitude": "42.93213",
        "longitude": "-1.50414",
        "city_name": "Esteribar",
        "popularity_rate": "3.52",
        "satisfaction_rate": null,
        "last_avg_price": "14.9",
        "total_reviews": "0",
        "uidentifier": "d759e12e428d455ab6a067790feb8e73"
      },
      {
        "name": "Confiteria Jarama",
        "street_address": "Calle Campomanes",
        "latitude": "43.358803",
        "longitude": "-5.845144",
        "city_name": "Oviedo",
        "popularity_rate": "4.49",
        "satisfaction_rate": null,
        "last_avg_price": "22.1",
        "total_reviews": "1",
        "uidentifier": "2b63692ae8eb4b3a870d67d9a29387bc"
      },
      {
        "name": "Curry Leaves",
        "street_address": "Centro Comercial Aloha",
        "latitude": "36.499801",
        "longitude": "-4.9614619",
        "city_name": "Marbella",
        "popularity_rate": "6.99",
        "satisfaction_rate": "8.5",
        "last_avg_price": "7.9",
        "total_reviews": "-5",
        "uidentifier": "22f6a284a3b34d6e8a32dff469385bca"
      },
      {
        "name": "W Lounge",
        "street_address": "Plaza de la Rosa dels Vents",
        "latitude": "41.3684512",
        "longitude": "2.1902424",
        "city_name": "Barcelona",
        "popularity_rate": "6.63",
        "satisfaction_rate": "7",
        "last_avg_price": "16.85",
        "total_reviews": "1",
        "uidentifier": "0a41d146f36e4c288c8232033499789e"
      },